[
  {
    "model": "pc.subway",
    "pk": 1,
    "fields": {
      "name": "두정역",
      "line": "1",
      "region": "SE",
      "latitude": 36.833705,
      "longitude": 127.14896,
      "pcbang_count": 12
    }
  },
  {
    "model": "pc.subway",
    "pk": 2,
    "fields": {
      "name": "천안역",
      "line": "1",
      "region": "SE",
      "latitude": 36.810005,
      "longitude": 127.146826,
      "pcbang_count": 23
    }
  },
  {
    "model": "pc.subway",
    "pk": 3,
    "fields": {
      "name": "인천역",
      "line": "1",
      "region": "SE",
      "latitude": 37.476691,
      "longitude": 126.616936,
      "pcbang_count": 4
    }
  },
  {
    "model": "pc.subway",
    "pk": 4,
    "fields": {
      "name": "서울역",
      "line": "1",
      "region": "SE",
      "latitude": 37.554648,
      "longitude": 126.972559,
      "pcbang_count": 9
    }
  },
  {
    "model": "pc.subway",
    "pk": 5,
    "fields": {
      "name": "시청역",
      "line": "1",
      "region": "SE",
      "latitude": 37.564718,
      "longitude": 126.977108,
      "pcbang_count": 8
    }
  },
  {
    "model": "pc.subway",
    "pk": 6,
    "fields": {
      "name": "종각역",
      "line": "1",
      "region": "SE",
      "latitude": 37.570161,
      "longitude": 126.982923,
      "pcbang_count": 11
    }
  },
  {
    "model": "pc.subway",
    "pk": 7,
    "fields": {
      "name": "종로3가역",
      "line": "1",
      "region": "SE",
      "latitude": 37.571607,
      "longitude": 126.991806,
      "pcbang_count": 7
    }
  },
  {
    "model": "pc.subway",
    "pk": 8,
    "fields": {
      "name": "종로5가역",
      "line": "1",
      "region": "SE",
      "latitude": 37.570926,
      "longitude": 127.001849,
      "pcbang_count": 8
    }
  },
  {
    "model": "pc.subway",
    "pk": 9,
    "fields": {
      "name": "동대문역",
      "line": "1",
      "region": "SE",
      "latitude": 37.57142,
      "longitude": 127.009745,
      "pcbang_count": 18
    }
  },
  {
    "model": "pc.subway",
    "pk": 10,
    "fields": {
      "name": "신설동역",
      "line": "1",
      "region": "SE",
      "latitude": 37.575297,
      "longitude": 127.025087,
      "pcbang_count": 18
    }
  },
  {
    "model": "pc.subway",
    "pk": 11,
    "fields": {
      "name": "제기동역",
      "line": "1",
      "region": "SE",
      "latitude": 37.578103,
      "longitude": 127.034893,
      "pcbang_count": 19
    }
  },
  {
    "model": "pc.subway",
    "pk": 12,
    "fields": {
      "name": "청량리역",
      "line": "1",
      "region": "SE",
      "latitude": 37.580178,
      "longitude": 127.046835,
      "pcbang_count": 22
    }
  },
  {
    "model": "pc.subway",
    "pk": 13,
    "fields": {
      "name": "동묘앞역",
      "line": "1",
      "region": "SE",
      "latitude": 37.572627,
      "longitude": 127.016429,
      "pcbang_count": 18
    }
  },
  {
    "model": "pc.subway",
    "pk": 14,
    "fields": {
      "name": "남영역",
      "line": "1",
      "region": "SE",
      "latitude": 37.541021,
      "longitude": 126.9713,
      "pcbang_count": 17
    }
  },
  {
    "model": "pc.subway",
    "pk": 15,
    "fields": {
      "name": "용산역",
      "line": "1",
      "region": "SE",
      "latitude": 37.529849,
      "longitude": 126.964561,
      "pcbang_count": 8
    }
  },
  {
    "model": "pc.subway",
    "pk": 16,
    "fields": {
      "name": "노량진역",
      "line": "1",
      "region": "SE",
      "latitude": 37.514219,
      "longitude": 126.942454,
      "pcbang_count": 37
    }
  },
  {
    "model": "pc.subway",
    "pk": 17,
    "fields": {
      "name": "대방역",
      "line": "1",
      "region": "SE",
      "latitude": 37.513342,
      "longitude": 126.926382,
      "pcbang_count": 18
    }
  },
  {
    "model": "pc.subway",
    "pk": 18,
    "fields": {
      "name": "영등포역",
      "line": "1",
      "region": "SE",
      "latitude": 37.515504,
      "longitude": 126.907628,
      "pcbang_count": 15
    }
  },
  {
    "model": "pc.subway",
    "pk": 19,
    "fields": {
      "name": "회기역",
      "line": "1",
      "region": "SE",
      "latitude": 37.58946,
      "longitude": 127.057583,
      "pcbang_count": 27
    }
  },
  {
    "model": "pc.subway",
    "pk": 20,
    "fields": {
      "name": "외대앞역",
      "line": "1",
      "region": "SE",
      "latitude": 37.596073,
      "longitude": 127.063549,
      "pcbang_count": 23
    }
  },
  {
    "model": "pc.subway",
    "pk": 21,
    "fields": {
      "name": "방학역",
      "line": "1",
      "region": "SE",
      "latitude": 37.667503,
      "longitude": 127.044273,
      "pcbang_count": 24
    }
  },
  {
    "model": "pc.subway",
    "pk": 22,
    "fields": {
      "name": "도봉역",
      "line": "1",
      "region": "SE",
      "latitude": 37.679563,
      "longitude": 127.045595,
      "pcbang_count": 12
    }
  },
  {
    "model": "pc.subway",
    "pk": 23,
    "fields": {
      "name": "도봉산역",
      "line": "1",
      "region": "SE",
      "latitude": 37.689313,
      "longitude": 127.046222,
      "pcbang_count": 3
    }
  },
  {
    "model": "pc.subway",
    "pk": 24,
    "fields": {
      "name": "회룡역",
      "line": "1",
      "region": "SE",
      "latitude": 37.724846,
      "longitude": 127.046895,
      "pcbang_count": 16
    }
  },
  {
    "model": "pc.subway",
    "pk": 25,
    "fields": {
      "name": "의정부역",
      "line": "1",
      "region": "SE",
      "latitude": 37.738415,
      "longitude": 127.045958,
      "pcbang_count": 27
    }
  },
  {
    "model": "pc.subway",
    "pk": 26,
    "fields": {
      "name": "가능역",
      "line": "1",
      "region": "SE",
      "latitude": 37.748577,
      "longitude": 127.044213,
      "pcbang_count": 17
    }
  },
  {
    "model": "pc.subway",
    "pk": 27,
    "fields": {
      "name": "녹양역",
      "line": "1",
      "region": "SE",
      "latitude": 37.75938,
      "longitude": 127.042292,
      "pcbang_count": 9
    }
  },
  {
    "model": "pc.subway",
    "pk": 28,
    "fields": {
      "name": "양주역",
      "line": "1",
      "region": "SE",
      "latitude": 37.774381,
      "longitude": 127.044708,
      "pcbang_count": 0
    }
  },
  {
    "model": "pc.subway",
    "pk": 29,
    "fields": {
      "name": "덕계역",
      "line": "1",
      "region": "SE",
      "latitude": 37.818486,
      "longitude": 127.056486,
      "pcbang_count": 1
    }
  },
  {
    "model": "pc.subway",
    "pk": 30,
    "fields": {
      "name": "덕정역",
      "line": "1",
      "region": "SE",
      "latitude": 37.843188,
      "longitude": 127.061277,
      "pcbang_count": 4
    }
  },
  {
    "model": "pc.subway",
    "pk": 31,
    "fields": {
      "name": "지행역",
      "line": "1",
      "region": "SE",
      "latitude": 37.892334,
      "longitude": 127.055716,
      "pcbang_count": 16
    }
  },
  {
    "model": "pc.subway",
    "pk": 32,
    "fields": {
      "name": "보산역",
      "line": "1",
      "region": "SE",
      "latitude": 37.913702,
      "longitude": 127.057277,
      "pcbang_count": 5
    }
  },
  {
    "model": "pc.subway",
    "pk": 33,
    "fields": {
      "name": "동두천역",
      "line": "1",
      "region": "SE",
      "latitude": 37.927878,
      "longitude": 127.05479,
      "pcbang_count": 0
    }
  },
  {
    "model": "pc.subway",
    "pk": 34,
    "fields": {
      "name": "소요산역",
      "line": "1",
      "region": "SE",
      "latitude": 37.9481,
      "longitude": 127.061034,
      "pcbang_count": 0
    }
  },
  {
    "model": "pc.subway",
    "pk": 35,
    "fields": {
      "name": "석계역",
      "line": "1",
      "region": "SE",
      "latitude": 37.614805,
      "longitude": 127.065851,
      "pcbang_count": 19
    }
  },
  {
    "model": "pc.subway",
    "pk": 36,
    "fields": {
      "name": "광운대역",
      "line": "1",
      "region": "SE",
      "latitude": 37.623632,
      "longitude": 127.061835,
      "pcbang_count": 16
    }
  },
  {
    "model": "pc.subway",
    "pk": 37,
    "fields": {
      "name": "월계역",
      "line": "1",
      "region": "SE",
      "latitude": 37.633212,
      "longitude": 127.058831,
      "pcbang_count": 6
    }
  },
  {
    "model": "pc.subway",
    "pk": 38,
    "fields": {
      "name": "녹천역",
      "line": "1",
      "region": "SE",
      "latitude": 37.644799,
      "longitude": 127.051269,
      "pcbang_count": 10
    }
  },
  {
    "model": "pc.subway",
    "pk": 39,
    "fields": {
      "name": "신길역",
      "line": "1",
      "region": "SE",
      "latitude": 37.517122,
      "longitude": 126.917169,
      "pcbang_count": 16
    }
  },
  {
    "model": "pc.subway",
    "pk": 40,
    "fields": {
      "name": "봉명역",
      "line": "1",
      "region": "SE",
      "latitude": 36.801215,
      "longitude": 127.135763,
      "pcbang_count": 17
    }
  },
  {
    "model": "pc.subway",
    "pk": 41,
    "fields": {
      "name": "쌍용역",
      "line": "1",
      "region": "SE",
      "latitude": 36.793759,
      "longitude": 127.1214,
      "pcbang_count": 22
    }
  },
  {
    "model": "pc.subway",
    "pk": 42,
    "fields": {
      "name": "배방역",
      "line": "1",
      "region": "SE",
      "latitude": 36.777629,
      "longitude": 127.052991,
      "pcbang_count": 4
    }
  },
  {
    "model": "pc.subway",
    "pk": 43,
    "fields": {
      "name": "온양온천역",
      "line": "1",
      "region": "SE",
      "latitude": 36.780483,
      "longitude": 127.003249,
      "pcbang_count": 23
    }
  },
  {
    "model": "pc.subway",
    "pk": 44,
    "fields": {
      "name": "구로역",
      "line": "1",
      "region": "SE",
      "latitude": 37.503039,
      "longitude": 126.881966,
      "pcbang_count": 15
    }
  },
  {
    "model": "pc.subway",
    "pk": 45,
    "fields": {
      "name": "가산디지털단지역",
      "line": "1",
      "region": "SE",
      "latitude": 37.481072,
      "longitude": 126.882343,
      "pcbang_count": 17
    }
  },
  {
    "model": "pc.subway",
    "pk": 46,
    "fields": {
      "name": "금천구청역",
      "line": "1",
      "region": "SE",
      "latitude": 37.455626,
      "longitude": 126.89398,
      "pcbang_count": 18
    }
  },
  {
    "model": "pc.subway",
    "pk": 47,
    "fields": {
      "name": "석수역",
      "line": "1",
      "region": "SE",
      "latitude": 37.435047,
      "longitude": 126.902295,
      "pcbang_count": 3
    }
  },
  {
    "model": "pc.subway",
    "pk": 48,
    "fields": {
      "name": "안양역",
      "line": "1",
      "region": "SE",
      "latitude": 37.401592,
      "longitude": 126.922874,
      "pcbang_count": 22
    }
  },
  {
    "model": "pc.subway",
    "pk": 49,
    "fields": {
      "name": "명학역",
      "line": "1",
      "region": "SE",
      "latitude": 37.384653,
      "longitude": 126.935433,
      "pcbang_count": 9
    }
  },
  {
    "model": "pc.subway",
    "pk": 50,
    "fields": {
      "name": "군포역",
      "line": "1",
      "region": "SE",
      "latitude": 37.35356,
      "longitude": 126.948462,
      "pcbang_count": 16
    }
  },
  {
    "model": "pc.subway",
    "pk": 51,
    "fields": {
      "name": "의왕역",
      "line": "1",
      "region": "SE",
      "latitude": 37.320852,
      "longitude": 126.948217,
      "pcbang_count": 7
    }
  },
  {
    "model": "pc.subway",
    "pk": 52,
    "fields": {
      "name": "성균관대역",
      "line": "1",
      "region": "SE",
      "latitude": 37.300349,
      "longitude": 126.97075,
      "pcbang_count": 10
    }
  },
  {
    "model": "pc.subway",
    "pk": 53,
    "fields": {
      "name": "수원역",
      "line": "1",
      "region": "SE",
      "latitude": 37.265974,
      "longitude": 126.999874,
      "pcbang_count": 11
    }
  },
  {
    "model": "pc.subway",
    "pk": 54,
    "fields": {
      "name": "독산역",
      "line": "1",
      "region": "SE",
      "latitude": 37.466613,
      "longitude": 126.889249,
      "pcbang_count": 12
    }
  },
  {
    "model": "pc.subway",
    "pk": 55,
    "fields": {
      "name": "세류역",
      "line": "1",
      "region": "SE",
      "latitude": 37.245025,
      "longitude": 127.013222,
      "pcbang_count": 6
    }
  },
  {
    "model": "pc.subway",
    "pk": 56,
    "fields": {
      "name": "병점역",
      "line": "1",
      "region": "SE",
      "latitude": 37.207503,
      "longitude": 127.032731,
      "pcbang_count": 15
    }
  },
  {
    "model": "pc.subway",
    "pk": 57,
    "fields": {
      "name": "세마역",
      "line": "1",
      "region": "SE",
      "latitude": 37.187533,
      "longitude": 127.04318,
      "pcbang_count": 0
    }
  },
  {
    "model": "pc.subway",
    "pk": 58,
    "fields": {
      "name": "오산대역",
      "line": "1",
      "region": "SE",
      "latitude": 37.168953,
      "longitude": 127.063197,
      "pcbang_count": 6
    }
  },
  {
    "model": "pc.subway",
    "pk": 59,
    "fields": {
      "name": "오산역",
      "line": "1",
      "region": "SE",
      "latitude": 37.145885,
      "longitude": 127.06672,
      "pcbang_count": 19
    }
  },
  {
    "model": "pc.subway",
    "pk": 60,
    "fields": {
      "name": "진위역",
      "line": "1",
      "region": "SE",
      "latitude": 37.109447,
      "longitude": 127.062278,
      "pcbang_count": 0
    }
  },
  {
    "model": "pc.subway",
    "pk": 61,
    "fields": {
      "name": "송탄역",
      "line": "1",
      "region": "SE",
      "latitude": 37.075696,
      "longitude": 127.054301,
      "pcbang_count": 16
    }
  },
  {
    "model": "pc.subway",
    "pk": 62,
    "fields": {
      "name": "서정리역",
      "line": "1",
      "region": "SE",
      "latitude": 37.056496,
      "longitude": 127.052819,
      "pcbang_count": 8
    }
  },
  {
    "model": "pc.subway",
    "pk": 63,
    "fields": {
      "name": "지제역",
      "line": "1",
      "region": "SE",
      "latitude": 37.0188,
      "longitude": 127.070444,
      "pcbang_count": 0
    }
  },
  {
    "model": "pc.subway",
    "pk": 64,
    "fields": {
      "name": "평택역",
      "line": "1",
      "region": "SE",
      "latitude": 36.990726,
      "longitude": 127.085159,
      "pcbang_count": 19
    }
  },
  {
    "model": "pc.subway",
    "pk": 65,
    "fields": {
      "name": "성환역",
      "line": "1",
      "region": "SE",
      "latitude": 36.916076,
      "longitude": 127.126964,
      "pcbang_count": 3
    }
  },
  {
    "model": "pc.subway",
    "pk": 66,
    "fields": {
      "name": "직산역",
      "line": "1",
      "region": "SE",
      "latitude": 36.870593,
      "longitude": 127.143904,
      "pcbang_count": 1
    }
  },
  {
    "model": "pc.subway",
    "pk": 67,
    "fields": {
      "name": "당정역",
      "line": "1",
      "region": "SE",
      "latitude": 37.344285,
      "longitude": 126.948345,
      "pcbang_count": 16
    }
  },
  {
    "model": "pc.subway",
    "pk": 68,
    "fields": {
      "name": "서동탄역",
      "line": "1",
      "region": "SE",
      "latitude": 37.195504,
      "longitude": 127.051672,
      "pcbang_count": 2
    }
  },
  {
    "model": "pc.subway",
    "pk": 69,
    "fields": {
      "name": "광명역",
      "line": "1",
      "region": "SE",
      "latitude": 37.416182,
      "longitude": 126.884466,
      "pcbang_count": 0
    }
  },
  {
    "model": "pc.subway",
    "pk": 70,
    "fields": {
      "name": "개봉역",
      "line": "1",
      "region": "SE",
      "latitude": 37.494594,
      "longitude": 126.85868,
      "pcbang_count": 28
    }
  },
  {
    "model": "pc.subway",
    "pk": 71,
    "fields": {
      "name": "오류동역",
      "line": "1",
      "region": "SE",
      "latitude": 37.494526,
      "longitude": 126.845365,
      "pcbang_count": 24
    }
  },
  {
    "model": "pc.subway",
    "pk": 72,
    "fields": {
      "name": "역곡역",
      "line": "1",
      "region": "SE",
      "latitude": 37.492159,
      "longitude": 126.823457,
      "pcbang_count": 10
    }
  },
  {
    "model": "pc.subway",
    "pk": 73,
    "fields": {
      "name": "부천역",
      "line": "1",
      "region": "SE",
      "latitude": 37.48405,
      "longitude": 126.782686,
      "pcbang_count": 33
    }
  },
  {
    "model": "pc.subway",
    "pk": 74,
    "fields": {
      "name": "송내역",
      "line": "1",
      "region": "SE",
      "latitude": 37.4876,
      "longitude": 126.753664,
      "pcbang_count": 15
    }
  },
  {
    "model": "pc.subway",
    "pk": 75,
    "fields": {
      "name": "부평역",
      "line": "1",
      "region": "SE",
      "latitude": 37.489493,
      "longitude": 126.724805,
      "pcbang_count": 25
    }
  },
  {
    "model": "pc.subway",
    "pk": 76,
    "fields": {
      "name": "백운역",
      "line": "1",
      "region": "SE",
      "latitude": 37.483664,
      "longitude": 126.707704,
      "pcbang_count": 8
    }
  },
  {
    "model": "pc.subway",
    "pk": 77,
    "fields": {
      "name": "동암역",
      "line": "1",
      "region": "SE",
      "latitude": 37.471408,
      "longitude": 126.702896,
      "pcbang_count": 24
    }
  },
  {
    "model": "pc.subway",
    "pk": 78,
    "fields": {
      "name": "주안역",
      "line": "1",
      "region": "SE",
      "latitude": 37.464941,
      "longitude": 126.679923,
      "pcbang_count": 22
    }
  },
  {
    "model": "pc.subway",
    "pk": 79,
    "fields": {
      "name": "제물포역",
      "line": "1",
      "region": "SE",
      "latitude": 37.466769,
      "longitude": 126.656666,
      "pcbang_count": 10
    }
  },
  {
    "model": "pc.subway",
    "pk": 80,
    "fields": {
      "name": "동인천역",
      "line": "1",
      "region": "SE",
      "latitude": 37.475276,
      "longitude": 126.632802,
      "pcbang_count": 15
    }
  },
  {
    "model": "pc.subway",
    "pk": 81,
    "fields": {
      "name": "구일역",
      "line": "1",
      "region": "SE",
      "latitude": 37.496756,
      "longitude": 126.870793,
      "pcbang_count": 14
    }
  },
  {
    "model": "pc.subway",
    "pk": 82,
    "fields": {
      "name": "소사역",
      "line": "1",
      "region": "SE",
      "latitude": 37.482753,
      "longitude": 126.79544,
      "pcbang_count": 15
    }
  },
  {
    "model": "pc.subway",
    "pk": 83,
    "fields": {
      "name": "부개역",
      "line": "1",
      "region": "SE",
      "latitude": 37.488418,
      "longitude": 126.74109,
      "pcbang_count": 17
    }
  },
  {
    "model": "pc.subway",
    "pk": 84,
    "fields": {
      "name": "간석역",
      "line": "1",
      "region": "SE",
      "latitude": 37.464737,
      "longitude": 126.694181,
      "pcbang_count": 27
    }
  },
  {
    "model": "pc.subway",
    "pk": 85,
    "fields": {
      "name": "도원역",
      "line": "1",
      "region": "SE",
      "latitude": 37.468446,
      "longitude": 126.642706,
      "pcbang_count": 13
    }
  },
  {
    "model": "pc.subway",
    "pk": 86,
    "fields": {
      "name": "온수역",
      "line": "1",
      "region": "SE",
      "latitude": 37.492159,
      "longitude": 126.823457,
      "pcbang_count": 10
    }
  },
  {
    "model": "pc.subway",
    "pk": 87,
    "fields": {
      "name": "중동역",
      "line": "1",
      "region": "SE",
      "latitude": 37.486562,
      "longitude": 126.764843,
      "pcbang_count": 23
    }
  },
  {
    "model": "pc.subway",
    "pk": 88,
    "fields": {
      "name": "도화역",
      "line": "1",
      "region": "SE",
      "latitude": 37.46607,
      "longitude": 126.668672,
      "pcbang_count": 17
    }
  },
  {
    "model": "pc.subway",
    "pk": 89,
    "fields": {
      "name": "신이문역",
      "line": "1",
      "region": "SE",
      "latitude": 37.601854,
      "longitude": 127.067325,
      "pcbang_count": 23
    }
  },
  {
    "model": "pc.subway",
    "pk": 90,
    "fields": {
      "name": "아산역",
      "line": "1",
      "region": "SE",
      "latitude": 36.792053,
      "longitude": 127.104361,
      "pcbang_count": 1
    }
  },
  {
    "model": "pc.subway",
    "pk": 91,
    "fields": {
      "name": "신창역",
      "line": "1",
      "region": "SE",
      "latitude": 36.769502,
      "longitude": 126.951108,
      "pcbang_count": 0
    }
  },
  {
    "model": "pc.subway",
    "pk": 92,
    "fields": {
      "name": "관악역",
      "line": "1",
      "region": "SE",
      "latitude": 37.419232,
      "longitude": 126.908706,
      "pcbang_count": 6
    }
  },
  {
    "model": "pc.subway",
    "pk": 93,
    "fields": {
      "name": "화서역",
      "line": "1",
      "region": "SE",
      "latitude": 37.283862,
      "longitude": 126.989627,
      "pcbang_count": 9
    }
  },
  {
    "model": "pc.subway",
    "pk": 94,
    "fields": {
      "name": "망월사역",
      "line": "1",
      "region": "SE",
      "latitude": 37.709914,
      "longitude": 127.047455,
      "pcbang_count": 4
    }
  },
  {
    "model": "pc.subway",
    "pk": 95,
    "fields": {
      "name": "동두천중앙역",
      "line": "1",
      "region": "SE",
      "latitude": 37.901885,
      "longitude": 127.056482,
      "pcbang_count": 9
    }
  },
  {
    "model": "pc.subway",
    "pk": 96,
    "fields": {
      "name": "건대입구역",
      "line": "2",
      "region": "SE",
      "latitude": 37.540693,
      "longitude": 127.07023,
      "pcbang_count": 29
    }
  },
  {
    "model": "pc.subway",
    "pk": 97,
    "fields": {
      "name": "구의역",
      "line": "2",
      "region": "SE",
      "latitude": 37.537077,
      "longitude": 127.085916,
      "pcbang_count": 26
    }
  },
  {
    "model": "pc.subway",
    "pk": 98,
    "fields": {
      "name": "강변역",
      "line": "2",
      "region": "SE",
      "latitude": 37.535095,
      "longitude": 127.094681,
      "pcbang_count": 16
    }
  },
  {
    "model": "pc.subway",
    "pk": 99,
    "fields": {
      "name": "잠실나루역",
      "line": "2",
      "region": "SE",
      "latitude": 37.520733,
      "longitude": 127.10379,
      "pcbang_count": 4
    }
  },
  {
    "model": "pc.subway",
    "pk": 100,
    "fields": {
      "name": "잠실역",
      "line": "2",
      "region": "SE",
      "latitude": 37.51395,
      "longitude": 127.102234,
      "pcbang_count": 11
    }
  },
  {
    "model": "pc.subway",
    "pk": 101,
    "fields": {
      "name": "신천역",
      "line": "2",
      "region": "SE",
      "latitude": 37.511687,
      "longitude": 127.086162,
      "pcbang_count": 21
    }
  },
  {
    "model": "pc.subway",
    "pk": 102,
    "fields": {
      "name": "종합운동장역",
      "line": "2",
      "region": "SE",
      "latitude": 37.510997,
      "longitude": 127.073642,
      "pcbang_count": 11
    }
  },
  {
    "model": "pc.subway",
    "pk": 103,
    "fields": {
      "name": "삼성역",
      "line": "2",
      "region": "SE",
      "latitude": 37.508844,
      "longitude": 127.06316,
      "pcbang_count": 12
    }
  },
  {
    "model": "pc.subway",
    "pk": 104,
    "fields": {
      "name": "선릉역",
      "line": "2",
      "region": "SE",
      "latitude": 37.504503,
      "longitude": 127.049008,
      "pcbang_count": 28
    }
  },
  {
    "model": "pc.subway",
    "pk": 105,
    "fields": {
      "name": "역삼역",
      "line": "2",
      "region": "SE",
      "latitude": 37.500622,
      "longitude": 127.036456,
      "pcbang_count": 30
    }
  },
  {
    "model": "pc.subway",
    "pk": 106,
    "fields": {
      "name": "강남역",
      "line": "2",
      "region": "SE",
      "latitude": 37.497175,
      "longitude": 127.027926,
      "pcbang_count": 21
    }
  },
  {
    "model": "pc.subway",
    "pk": 107,
    "fields": {
      "name": "서초역",
      "line": "2",
      "region": "SE",
      "latitude": 37.491897,
      "longitude": 127.007917,
      "pcbang_count": 16
    }
  },
  {
    "model": "pc.subway",
    "pk": 108,
    "fields": {
      "name": "방배역",
      "line": "2",
      "region": "SE",
      "latitude": 37.481426,
      "longitude": 126.997596,
      "pcbang_count": 8
    }
  },
  {
    "model": "pc.subway",
    "pk": 109,
    "fields": {
      "name": "신촌역",
      "line": "2",
      "region": "SE",
      "latitude": 37.555134,
      "longitude": 126.936893,
      "pcbang_count": 27
    }
  },
  {
    "model": "pc.subway",
    "pk": 110,
    "fields": {
      "name": "이대역",
      "line": "2",
      "region": "SE",
      "latitude": 37.556733,
      "longitude": 126.946013,
      "pcbang_count": 23
    }
  },
  {
    "model": "pc.subway",
    "pk": 111,
    "fields": {
      "name": "아현역",
      "line": "2",
      "region": "SE",
      "latitude": 37.557345,
      "longitude": 126.956141,
      "pcbang_count": 15
    }
  },
  {
    "model": "pc.subway",
    "pk": 112,
    "fields": {
      "name": "충정로역",
      "line": "2",
      "region": "SE",
      "latitude": 37.559973,
      "longitude": 126.963672,
      "pcbang_count": 10
    }
  },
  {
    "model": "pc.subway",
    "pk": 113,
    "fields": {
      "name": "용답역",
      "line": "2",
      "region": "SE",
      "latitude": 37.561904,
      "longitude": 127.050899,
      "pcbang_count": 19
    }
  },
  {
    "model": "pc.subway",
    "pk": 114,
    "fields": {
      "name": "신답역",
      "line": "2",
      "region": "SE",
      "latitude": 37.57004,
      "longitude": 127.046481,
      "pcbang_count": 16
    }
  },
  {
    "model": "pc.subway",
    "pk": 115,
    "fields": {
      "name": "도림천역",
      "line": "2",
      "region": "SE",
      "latitude": 37.514287,
      "longitude": 126.882768,
      "pcbang_count": 12
    }
  },
  {
    "model": "pc.subway",
    "pk": 116,
    "fields": {
      "name": "양천구청역",
      "line": "2",
      "region": "SE",
      "latitude": 37.512398,
      "longitude": 126.865819,
      "pcbang_count": 11
    }
  },
  {
    "model": "pc.subway",
    "pk": 117,
    "fields": {
      "name": "신정네거리역",
      "line": "2",
      "region": "SE",
      "latitude": 37.520074,
      "longitude": 126.852912,
      "pcbang_count": 18
    }
  },
  {
    "model": "pc.subway",
    "pk": 118,
    "fields": {
      "name": "사당역",
      "line": "2",
      "region": "SE",
      "latitude": 37.47653,
      "longitude": 126.981685,
      "pcbang_count": 18
    }
  },
  {
    "model": "pc.subway",
    "pk": 119,
    "fields": {
      "name": "낙성대역",
      "line": "2",
      "region": "SE",
      "latitude": 37.47693,
      "longitude": 126.963693,
      "pcbang_count": 25
    }
  },
  {
    "model": "pc.subway",
    "pk": 120,
    "fields": {
      "name": "서울대입구역",
      "line": "2",
      "region": "SE",
      "latitude": 37.481247,
      "longitude": 126.952739,
      "pcbang_count": 26
    }
  },
  {
    "model": "pc.subway",
    "pk": 121,
    "fields": {
      "name": "봉천역",
      "line": "2",
      "region": "SE",
      "latitude": 37.482362,
      "longitude": 126.941892,
      "pcbang_count": 26
    }
  },
  {
    "model": "pc.subway",
    "pk": 122,
    "fields": {
      "name": "신림역",
      "line": "2",
      "region": "SE",
      "latitude": 37.484201,
      "longitude": 126.929715,
      "pcbang_count": 34
    }
  },
  {
    "model": "pc.subway",
    "pk": 123,
    "fields": {
      "name": "신대방역",
      "line": "2",
      "region": "SE",
      "latitude": 37.487462,
      "longitude": 126.913149,
      "pcbang_count": 17
    }
  },
  {
    "model": "pc.subway",
    "pk": 124,
    "fields": {
      "name": "구로디지털단지역",
      "line": "2",
      "region": "SE",
      "latitude": 37.485266,
      "longitude": 126.901401,
      "pcbang_count": 23
    }
  },
  {
    "model": "pc.subway",
    "pk": 125,
    "fields": {
      "name": "대림역",
      "line": "2",
      "region": "SE",
      "latitude": 37.49297,
      "longitude": 126.895801,
      "pcbang_count": 26
    }
  },
  {
    "model": "pc.subway",
    "pk": 126,
    "fields": {
      "name": "신도림역",
      "line": "2",
      "region": "SE",
      "latitude": 37.508725,
      "longitude": 126.891295,
      "pcbang_count": 19
    }
  },
  {
    "model": "pc.subway",
    "pk": 127,
    "fields": {
      "name": "문래역",
      "line": "2",
      "region": "SE",
      "latitude": 37.517933,
      "longitude": 126.89476,
      "pcbang_count": 14
    }
  },
  {
    "model": "pc.subway",
    "pk": 128,
    "fields": {
      "name": "영등포구청역",
      "line": "2",
      "region": "SE",
      "latitude": 37.52497,
      "longitude": 126.895951,
      "pcbang_count": 13
    }
  },
  {
    "model": "pc.subway",
    "pk": 129,
    "fields": {
      "name": "당산역",
      "line": "2",
      "region": "SE",
      "latitude": 37.53438,
      "longitude": 126.902281,
      "pcbang_count": 10
    }
  },
  {
    "model": "pc.subway",
    "pk": 130,
    "fields": {
      "name": "합정역",
      "line": "2",
      "region": "SE",
      "latitude": 37.549463,
      "longitude": 126.913739,
      "pcbang_count": 22
    }
  },
  {
    "model": "pc.subway",
    "pk": 131,
    "fields": {
      "name": "홍대입구역",
      "line": "2",
      "region": "SE",
      "latitude": 37.557192,
      "longitude": 126.925381,
      "pcbang_count": 24
    }
  },
  {
    "model": "pc.subway",
    "pk": 132,
    "fields": {
      "name": "을지로입구역",
      "line": "2",
      "region": "SE",
      "latitude": 37.566014,
      "longitude": 126.982618,
      "pcbang_count": 11
    }
  },
  {
    "model": "pc.subway",
    "pk": 133,
    "fields": {
      "name": "을지로4가역",
      "line": "2",
      "region": "SE",
      "latitude": 37.566941,
      "longitude": 126.998079,
      "pcbang_count": 17
    }
  },
  {
    "model": "pc.subway",
    "pk": 134,
    "fields": {
      "name": "동대문역사문화공원역",
      "line": "2",
      "region": "SE",
      "latitude": 37.565138,
      "longitude": 127.007896,
      "pcbang_count": 21
    }
  },
  {
    "model": "pc.subway",
    "pk": 135,
    "fields": {
      "name": "신당역",
      "line": "2",
      "region": "SE",
      "latitude": 37.565972,
      "longitude": 127.01782,
      "pcbang_count": 20
    }
  },
  {
    "model": "pc.subway",
    "pk": 136,
    "fields": {
      "name": "상왕십리역",
      "line": "2",
      "region": "SE",
      "latitude": 37.564354,
      "longitude": 127.029354,
      "pcbang_count": 21
    }
  },
  {
    "model": "pc.subway",
    "pk": 137,
    "fields": {
      "name": "왕십리역",
      "line": "2",
      "region": "SE",
      "latitude": 37.561533,
      "longitude": 127.037732,
      "pcbang_count": 21
    }
  },
  {
    "model": "pc.subway",
    "pk": 138,
    "fields": {
      "name": "한양대역",
      "line": "2",
      "region": "SE",
      "latitude": 37.555273,
      "longitude": 127.043655,
      "pcbang_count": 25
    }
  },
  {
    "model": "pc.subway",
    "pk": 139,
    "fields": {
      "name": "뚝섬역",
      "line": "2",
      "region": "SE",
      "latitude": 37.547184,
      "longitude": 127.047367,
      "pcbang_count": 8
    }
  },
  {
    "model": "pc.subway",
    "pk": 140,
    "fields": {
      "name": "성수역",
      "line": "2",
      "region": "SE",
      "latitude": 37.544581,
      "longitude": 127.055961,
      "pcbang_count": 17
    }
  },
  {
    "model": "pc.subway",
    "pk": 141,
    "fields": {
      "name": "용두역",
      "line": "2",
      "region": "SE",
      "latitude": 37.574028,
      "longitude": 127.038091,
      "pcbang_count": 14
    }
  },
  {
    "model": "pc.subway",
    "pk": 142,
    "fields": {
      "name": "을지로3가역",
      "line": "2",
      "region": "SE",
      "latitude": 37.566295,
      "longitude": 126.99191,
      "pcbang_count": 15
    }
  },
  {
    "model": "pc.subway",
    "pk": 143,
    "fields": {
      "name": "지축역",
      "line": "3",
      "region": "SE",
      "latitude": 37.648048,
      "longitude": 126.913951,
      "pcbang_count": 0
    }
  },
  {
    "model": "pc.subway",
    "pk": 144,
    "fields": {
      "name": "구파발역",
      "line": "3",
      "region": "SE",
      "latitude": 37.636763,
      "longitude": 126.918821,
      "pcbang_count": 2
    }
  },
  {
    "model": "pc.subway",
    "pk": 145,
    "fields": {
      "name": "연신내역",
      "line": "3",
      "region": "SE",
      "latitude": 37.619001,
      "longitude": 126.921008,
      "pcbang_count": 24
    }
  },
  {
    "model": "pc.subway",
    "pk": 146,
    "fields": {
      "name": "불광역",
      "line": "3",
      "region": "SE",
      "latitude": 37.610469,
      "longitude": 126.929887,
      "pcbang_count": 21
    }
  },
  {
    "model": "pc.subway",
    "pk": 147,
    "fields": {
      "name": "녹번역",
      "line": "3",
      "region": "SE",
      "latitude": 37.600927,
      "longitude": 126.935756,
      "pcbang_count": 8
    }
  },
  {
    "model": "pc.subway",
    "pk": 148,
    "fields": {
      "name": "홍제역",
      "line": "3",
      "region": "SE",
      "latitude": 37.589066,
      "longitude": 126.943736,
      "pcbang_count": 8
    }
  },
  {
    "model": "pc.subway",
    "pk": 149,
    "fields": {
      "name": "무악재역",
      "line": "3",
      "region": "SE",
      "latitude": 37.582299,
      "longitude": 126.950291,
      "pcbang_count": 6
    }
  },
  {
    "model": "pc.subway",
    "pk": 150,
    "fields": {
      "name": "독립문역",
      "line": "3",
      "region": "SE",
      "latitude": 37.574571,
      "longitude": 126.957748,
      "pcbang_count": 6
    }
  },
  {
    "model": "pc.subway",
    "pk": 151,
    "fields": {
      "name": "경복궁역",
      "line": "3",
      "region": "SE",
      "latitude": 37.575762,
      "longitude": 126.97353,
      "pcbang_count": 6
    }
  },
  {
    "model": "pc.subway",
    "pk": 152,
    "fields": {
      "name": "안국역",
      "line": "3",
      "region": "SE",
      "latitude": 37.576477,
      "longitude": 126.985443,
      "pcbang_count": 6
    }
  },
  {
    "model": "pc.subway",
    "pk": 153,
    "fields": {
      "name": "충무로역",
      "line": "3",
      "region": "SE",
      "latitude": 37.561243,
      "longitude": 126.99428,
      "pcbang_count": 13
    }
  },
  {
    "model": "pc.subway",
    "pk": 154,
    "fields": {
      "name": "동대입구역",
      "line": "3",
      "region": "SE",
      "latitude": 37.559052,
      "longitude": 127.005602,
      "pcbang_count": 19
    }
  },
  {
    "model": "pc.subway",
    "pk": 155,
    "fields": {
      "name": "약수역",
      "line": "3",
      "region": "SE",
      "latitude": 37.55434,
      "longitude": 127.010655,
      "pcbang_count": 17
    }
  },
  {
    "model": "pc.subway",
    "pk": 156,
    "fields": {
      "name": "금호역",
      "line": "3",
      "region": "SE",
      "latitude": 37.548034,
      "longitude": 127.015872,
      "pcbang_count": 10
    }
  },
  {
    "model": "pc.subway",
    "pk": 157,
    "fields": {
      "name": "옥수역",
      "line": "3",
      "region": "SE",
      "latitude": 37.540685,
      "longitude": 127.017965,
      "pcbang_count": 6
    }
  },
  {
    "model": "pc.subway",
    "pk": 158,
    "fields": {
      "name": "압구정역",
      "line": "3",
      "region": "SE",
      "latitude": 37.527072,
      "longitude": 127.028461,
      "pcbang_count": 9
    }
  },
  {
    "model": "pc.subway",
    "pk": 159,
    "fields": {
      "name": "신사역",
      "line": "3",
      "region": "SE",
      "latitude": 37.516334,
      "longitude": 127.020114,
      "pcbang_count": 16
    }
  },
  {
    "model": "pc.subway",
    "pk": 160,
    "fields": {
      "name": "잠원역",
      "line": "3",
      "region": "SE",
      "latitude": 37.512759,
      "longitude": 127.01122,
      "pcbang_count": 13
    }
  },
  {
    "model": "pc.subway",
    "pk": 161,
    "fields": {
      "name": "고속터미널역",
      "line": "3",
      "region": "SE",
      "latitude": 37.50481,
      "longitude": 127.004943,
      "pcbang_count": 6
    }
  },
  {
    "model": "pc.subway",
    "pk": 162,
    "fields": {
      "name": "교대역",
      "line": "3",
      "region": "SE",
      "latitude": 37.493415,
      "longitude": 127.01408,
      "pcbang_count": 15
    }
  },
  {
    "model": "pc.subway",
    "pk": 163,
    "fields": {
      "name": "남부터미널역",
      "line": "3",
      "region": "SE",
      "latitude": 37.485013,
      "longitude": 127.016189,
      "pcbang_count": 12
    }
  },
  {
    "model": "pc.subway",
    "pk": 164,
    "fields": {
      "name": "양재역",
      "line": "3",
      "region": "SE",
      "latitude": 37.484147,
      "longitude": 127.034631,
      "pcbang_count": 16
    }
  },
  {
    "model": "pc.subway",
    "pk": 165,
    "fields": {
      "name": "매봉역",
      "line": "3",
      "region": "SE",
      "latitude": 37.486947,
      "longitude": 127.046769,
      "pcbang_count": 18
    }
  },
  {
    "model": "pc.subway",
    "pk": 166,
    "fields": {
      "name": "도곡역",
      "line": "3",
      "region": "SE",
      "latitude": 37.490858,
      "longitude": 127.055381,
      "pcbang_count": 16
    }
  },
  {
    "model": "pc.subway",
    "pk": 167,
    "fields": {
      "name": "대치역",
      "line": "3",
      "region": "SE",
      "latitude": 37.494612,
      "longitude": 127.063642,
      "pcbang_count": 17
    }
  },
  {
    "model": "pc.subway",
    "pk": 168,
    "fields": {
      "name": "학여울역",
      "line": "3",
      "region": "SE",
      "latitude": 37.496663,
      "longitude": 127.070594,
      "pcbang_count": 13
    }
  },
  {
    "model": "pc.subway",
    "pk": 169,
    "fields": {
      "name": "대청역",
      "line": "3",
      "region": "SE",
      "latitude": 37.493514,
      "longitude": 127.079532,
      "pcbang_count": 10
    }
  },
  {
    "model": "pc.subway",
    "pk": 170,
    "fields": {
      "name": "일원역",
      "line": "3",
      "region": "SE",
      "latitude": 37.483681,
      "longitude": 127.08439,
      "pcbang_count": 11
    }
  },
  {
    "model": "pc.subway",
    "pk": 171,
    "fields": {
      "name": "수서역",
      "line": "3",
      "region": "SE",
      "latitude": 37.487371,
      "longitude": 127.10188,
      "pcbang_count": 1
    }
  },
  {
    "model": "pc.subway",
    "pk": 172,
    "fields": {
      "name": "경찰병원역",
      "line": "3",
      "region": "SE",
      "latitude": 37.495918,
      "longitude": 127.12454,
      "pcbang_count": 23
    }
  },
  {
    "model": "pc.subway",
    "pk": 173,
    "fields": {
      "name": "삼송역",
      "line": "3",
      "region": "SE",
      "latitude": 37.653083,
      "longitude": 126.895558,
      "pcbang_count": 1
    }
  },
  {
    "model": "pc.subway",
    "pk": 174,
    "fields": {
      "name": "원당역",
      "line": "3",
      "region": "SE",
      "latitude": 37.653324,
      "longitude": 126.843041,
      "pcbang_count": 11
    }
  },
  {
    "model": "pc.subway",
    "pk": 175,
    "fields": {
      "name": "화정역",
      "line": "3",
      "region": "SE",
      "latitude": 37.634592,
      "longitude": 126.83265,
      "pcbang_count": 20
    }
  },
  {
    "model": "pc.subway",
    "pk": 176,
    "fields": {
      "name": "대곡역",
      "line": "3",
      "region": "SE",
      "latitude": 37.631626,
      "longitude": 126.811024,
      "pcbang_count": 3
    }
  },
  {
    "model": "pc.subway",
    "pk": 177,
    "fields": {
      "name": "백석역",
      "line": "3",
      "region": "SE",
      "latitude": 37.643114,
      "longitude": 126.78787,
      "pcbang_count": 13
    }
  },
  {
    "model": "pc.subway",
    "pk": 178,
    "fields": {
      "name": "마두역",
      "line": "3",
      "region": "SE",
      "latitude": 37.652206,
      "longitude": 126.77762,
      "pcbang_count": 15
    }
  },
  {
    "model": "pc.subway",
    "pk": 179,
    "fields": {
      "name": "정발산역",
      "line": "3",
      "region": "SE",
      "latitude": 37.659477,
      "longitude": 126.773359,
      "pcbang_count": 17
    }
  },
  {
    "model": "pc.subway",
    "pk": 180,
    "fields": {
      "name": "주엽역",
      "line": "3",
      "region": "SE",
      "latitude": 37.670072,
      "longitude": 126.761334,
      "pcbang_count": 18
    }
  },
  {
    "model": "pc.subway",
    "pk": 181,
    "fields": {
      "name": "대화역",
      "line": "3",
      "region": "SE",
      "latitude": 37.676087,
      "longitude": 126.747569,
      "pcbang_count": 10
    }
  },
  {
    "model": "pc.subway",
    "pk": 182,
    "fields": {
      "name": "원흥역",
      "line": "3",
      "region": "SE",
      "latitude": 37.650658,
      "longitude": 126.872642,
      "pcbang_count": 1
    }
  },
  {
    "model": "pc.subway",
    "pk": 183,
    "fields": {
      "name": "중앙역",
      "line": "4",
      "region": "SE",
      "latitude": 37.315941,
      "longitude": 126.838573,
      "pcbang_count": 20
    }
  },
  {
    "model": "pc.subway",
    "pk": 184,
    "fields": {
      "name": "수리산역",
      "line": "4",
      "region": "SE",
      "latitude": 37.349801,
      "longitude": 126.925365,
      "pcbang_count": 4
    }
  },
  {
    "model": "pc.subway",
    "pk": 185,
    "fields": {
      "name": "한성대입구역",
      "line": "4",
      "region": "SE",
      "latitude": 37.588458,
      "longitude": 127.006221,
      "pcbang_count": 17
    }
  },
  {
    "model": "pc.subway",
    "pk": 186,
    "fields": {
      "name": "혜화역",
      "line": "4",
      "region": "SE",
      "latitude": 37.582336,
      "longitude": 127.001844,
      "pcbang_count": 15
    }
  },
  {
    "model": "pc.subway",
    "pk": 187,
    "fields": {
      "name": "명동역",
      "line": "4",
      "region": "SE",
      "latitude": 37.560989,
      "longitude": 126.986325,
      "pcbang_count": 10
    }
  },
  {
    "model": "pc.subway",
    "pk": 188,
    "fields": {
      "name": "회현역",
      "line": "4",
      "region": "SE",
      "latitude": 37.558514,
      "longitude": 126.978246,
      "pcbang_count": 7
    }
  },
  {
    "model": "pc.subway",
    "pk": 189,
    "fields": {
      "name": "숙대입구역",
      "line": "4",
      "region": "SE",
      "latitude": 37.54456,
      "longitude": 126.972106,
      "pcbang_count": 17
    }
  },
  {
    "model": "pc.subway",
    "pk": 190,
    "fields": {
      "name": "삼각지역",
      "line": "4",
      "region": "SE",
      "latitude": 37.534777,
      "longitude": 126.97311,
      "pcbang_count": 8
    }
  },
  {
    "model": "pc.subway",
    "pk": 191,
    "fields": {
      "name": "신용산역",
      "line": "4",
      "region": "SE",
      "latitude": 37.52917,
      "longitude": 126.967894,
      "pcbang_count": 6
    }
  },
  {
    "model": "pc.subway",
    "pk": 192,
    "fields": {
      "name": "이촌역",
      "line": "4",
      "region": "SE",
      "latitude": 37.522272,
      "longitude": 126.974345,
      "pcbang_count": 4
    }
  },
  {
    "model": "pc.subway",
    "pk": 193,
    "fields": {
      "name": "동작역",
      "line": "4",
      "region": "SE",
      "latitude": 37.502971,
      "longitude": 126.979306,
      "pcbang_count": 4
    }
  },
  {
    "model": "pc.subway",
    "pk": 194,
    "fields": {
      "name": "총신대입구역",
      "line": "4",
      "region": "SE",
      "latitude": 37.486263,
      "longitude": 126.981989,
      "pcbang_count": 21
    }
  },
  {
    "model": "pc.subway",
    "pk": 195,
    "fields": {
      "name": "선바위역",
      "line": "4",
      "region": "SE",
      "latitude": 37.451673,
      "longitude": 127.002303,
      "pcbang_count": 0
    }
  },
  {
    "model": "pc.subway",
    "pk": 196,
    "fields": {
      "name": "경마공원역",
      "line": "4",
      "region": "SE",
      "latitude": 37.443885,
      "longitude": 127.007888,
      "pcbang_count": 0
    }
  },
  {
    "model": "pc.subway",
    "pk": 197,
    "fields": {
      "name": "대공원역",
      "line": "4",
      "region": "SE",
      "latitude": 37.435675,
      "longitude": 127.006523,
      "pcbang_count": 1
    }
  },
  {
    "model": "pc.subway",
    "pk": 198,
    "fields": {
      "name": "과천역",
      "line": "4",
      "region": "SE",
      "latitude": 37.433021,
      "longitude": 126.996568,
      "pcbang_count": 7
    }
  },
  {
    "model": "pc.subway",
    "pk": 199,
    "fields": {
      "name": "정부과천청사역",
      "line": "4",
      "region": "SE",
      "latitude": 37.426513,
      "longitude": 126.98978,
      "pcbang_count": 7
    }
  },
  {
    "model": "pc.subway",
    "pk": 200,
    "fields": {
      "name": "인덕원역",
      "line": "4",
      "region": "SE",
      "latitude": 37.401553,
      "longitude": 126.976715,
      "pcbang_count": 10
    }
  },
  {
    "model": "pc.subway",
    "pk": 201,
    "fields": {
      "name": "평촌역",
      "line": "4",
      "region": "SE",
      "latitude": 37.394287,
      "longitude": 126.963883,
      "pcbang_count": 14
    }
  },
  {
    "model": "pc.subway",
    "pk": 202,
    "fields": {
      "name": "범계역",
      "line": "4",
      "region": "SE",
      "latitude": 37.389793,
      "longitude": 126.950806,
      "pcbang_count": 22
    }
  },
  {
    "model": "pc.subway",
    "pk": 203,
    "fields": {
      "name": "금정역",
      "line": "4",
      "region": "SE",
      "latitude": 37.372221,
      "longitude": 126.943429,
      "pcbang_count": 9
    }
  },
  {
    "model": "pc.subway",
    "pk": 204,
    "fields": {
      "name": "산본역",
      "line": "4",
      "region": "SE",
      "latitude": 37.358101,
      "longitude": 126.933274,
      "pcbang_count": 20
    }
  },
  {
    "model": "pc.subway",
    "pk": 205,
    "fields": {
      "name": "대야미역",
      "line": "4",
      "region": "SE",
      "latitude": 37.328467,
      "longitude": 126.917332,
      "pcbang_count": 0
    }
  },
  {
    "model": "pc.subway",
    "pk": 206,
    "fields": {
      "name": "반월역",
      "line": "4",
      "region": "SE",
      "latitude": 37.312212,
      "longitude": 126.903524,
      "pcbang_count": 2
    }
  },
  {
    "model": "pc.subway",
    "pk": 207,
    "fields": {
      "name": "상록수역",
      "line": "4",
      "region": "SE",
      "latitude": 37.302795,
      "longitude": 126.866489,
      "pcbang_count": 27
    }
  },
  {
    "model": "pc.subway",
    "pk": 208,
    "fields": {
      "name": "한대앞역",
      "line": "4",
      "region": "SE",
      "latitude": 37.309689,
      "longitude": 126.85344,
      "pcbang_count": 16
    }
  },
  {
    "model": "pc.subway",
    "pk": 209,
    "fields": {
      "name": "고잔역",
      "line": "4",
      "region": "SE",
      "latitude": 37.316777,
      "longitude": 126.823249,
      "pcbang_count": 14
    }
  },
  {
    "model": "pc.subway",
    "pk": 210,
    "fields": {
      "name": "초지역",
      "line": "4",
      "region": "SE",
      "latitude": 37.320646,
      "longitude": 126.805913,
      "pcbang_count": 3
    }
  },
  {
    "model": "pc.subway",
    "pk": 211,
    "fields": {
      "name": "안산역",
      "line": "4",
      "region": "SE",
      "latitude": 37.327082,
      "longitude": 126.788532,
      "pcbang_count": 13
    }
  },
  {
    "model": "pc.subway",
    "pk": 212,
    "fields": {
      "name": "신길온천역",
      "line": "4",
      "region": "SE",
      "latitude": 37.338212,
      "longitude": 126.765844,
      "pcbang_count": 7
    }
  },
  {
    "model": "pc.subway",
    "pk": 213,
    "fields": {
      "name": "정왕역",
      "line": "4",
      "region": "SE",
      "latitude": 37.351735,
      "longitude": 126.742989,
      "pcbang_count": 32
    }
  },
  {
    "model": "pc.subway",
    "pk": 214,
    "fields": {
      "name": "오이도역",
      "line": "4",
      "region": "SE",
      "latitude": 37.362357,
      "longitude": 126.738714,
      "pcbang_count": 5
    }
  },
  {
    "model": "pc.subway",
    "pk": 215,
    "fields": {
      "name": "남태령역",
      "line": "4",
      "region": "SE",
      "latitude": 37.463873,
      "longitude": 126.989134,
      "pcbang_count": 0
    }
  },
  {
    "model": "pc.subway",
    "pk": 216,
    "fields": {
      "name": "당고개역",
      "line": "4",
      "region": "SE",
      "latitude": 37.670272,
      "longitude": 127.079066,
      "pcbang_count": 12
    }
  },
  {
    "model": "pc.subway",
    "pk": 217,
    "fields": {
      "name": "상계역",
      "line": "4",
      "region": "SE",
      "latitude": 37.660878,
      "longitude": 127.073572,
      "pcbang_count": 27
    }
  },
  {
    "model": "pc.subway",
    "pk": 218,
    "fields": {
      "name": "노원역",
      "line": "4",
      "region": "SE",
      "latitude": 37.655128,
      "longitude": 127.061368,
      "pcbang_count": 22
    }
  },
  {
    "model": "pc.subway",
    "pk": 219,
    "fields": {
      "name": "창동역",
      "line": "4",
      "region": "SE",
      "latitude": 37.653166,
      "longitude": 127.047731,
      "pcbang_count": 12
    }
  },
  {
    "model": "pc.subway",
    "pk": 220,
    "fields": {
      "name": "쌍문역",
      "line": "4",
      "region": "SE",
      "latitude": 37.648627,
      "longitude": 127.034709,
      "pcbang_count": 14
    }
  },
  {
    "model": "pc.subway",
    "pk": 221,
    "fields": {
      "name": "수유역",
      "line": "4",
      "region": "SE",
      "latitude": 37.638052,
      "longitude": 127.025732,
      "pcbang_count": 30
    }
  },
  {
    "model": "pc.subway",
    "pk": 222,
    "fields": {
      "name": "미아역",
      "line": "4",
      "region": "SE",
      "latitude": 37.62667,
      "longitude": 127.025983,
      "pcbang_count": 27
    }
  },
  {
    "model": "pc.subway",
    "pk": 223,
    "fields": {
      "name": "미아사거리역",
      "line": "4",
      "region": "SE",
      "latitude": 37.613292,
      "longitude": 127.030053,
      "pcbang_count": 19
    }
  },
  {
    "model": "pc.subway",
    "pk": 224,
    "fields": {
      "name": "길음역",
      "line": "4",
      "region": "SE",
      "latitude": 37.603407,
      "longitude": 127.025053,
      "pcbang_count": 18
    }
  },
  {
    "model": "pc.subway",
    "pk": 225,
    "fields": {
      "name": "성신여대입구역",
      "line": "4",
      "region": "SE",
      "latitude": 37.592624,
      "longitude": 127.016403,
      "pcbang_count": 9
    }
  },
  {
    "model": "pc.subway",
    "pk": 226,
    "fields": {
      "name": "개화산역",
      "line": "5",
      "region": "SE",
      "latitude": 37.572399,
      "longitude": 126.806171,
      "pcbang_count": 12
    }
  },
  {
    "model": "pc.subway",
    "pk": 227,
    "fields": {
      "name": "김포공항역",
      "line": "5",
      "region": "SE",
      "latitude": 37.562434,
      "longitude": 126.801058,
      "pcbang_count": 4
    }
  },
  {
    "model": "pc.subway",
    "pk": 228,
    "fields": {
      "name": "송정역",
      "line": "5",
      "region": "SE",
      "latitude": 37.561184,
      "longitude": 126.811973,
      "pcbang_count": 8
    }
  },
  {
    "model": "pc.subway",
    "pk": 229,
    "fields": {
      "name": "마곡역",
      "line": "5",
      "region": "SE",
      "latitude": 37.560183,
      "longitude": 126.825448,
      "pcbang_count": 2
    }
  },
  {
    "model": "pc.subway",
    "pk": 230,
    "fields": {
      "name": "발산역",
      "line": "5",
      "region": "SE",
      "latitude": 37.558598,
      "longitude": 126.837668,
      "pcbang_count": 11
    }
  },
  {
    "model": "pc.subway",
    "pk": 231,
    "fields": {
      "name": "우장산역",
      "line": "5",
      "region": "SE",
      "latitude": 37.548768,
      "longitude": 126.836318,
      "pcbang_count": 21
    }
  },
  {
    "model": "pc.subway",
    "pk": 232,
    "fields": {
      "name": "화곡역",
      "line": "5",
      "region": "SE",
      "latitude": 37.541513,
      "longitude": 126.840461,
      "pcbang_count": 25
    }
  },
  {
    "model": "pc.subway",
    "pk": 233,
    "fields": {
      "name": "까치산역",
      "line": "5",
      "region": "SE",
      "latitude": 37.531768,
      "longitude": 126.846683,
      "pcbang_count": 20
    }
  },
  {
    "model": "pc.subway",
    "pk": 234,
    "fields": {
      "name": "신정역",
      "line": "5",
      "region": "SE",
      "latitude": 37.524997,
      "longitude": 126.856191,
      "pcbang_count": 28
    }
  },
  {
    "model": "pc.subway",
    "pk": 235,
    "fields": {
      "name": "목동역",
      "line": "5",
      "region": "SE",
      "latitude": 37.526065,
      "longitude": 126.864931,
      "pcbang_count": 27
    }
  },
  {
    "model": "pc.subway",
    "pk": 236,
    "fields": {
      "name": "오목교역",
      "line": "5",
      "region": "SE",
      "latitude": 37.524496,
      "longitude": 126.875181,
      "pcbang_count": 11
    }
  },
  {
    "model": "pc.subway",
    "pk": 237,
    "fields": {
      "name": "양평역",
      "line": "5",
      "region": "SE",
      "latitude": 37.525648,
      "longitude": 126.885778,
      "pcbang_count": 15
    }
  },
  {
    "model": "pc.subway",
    "pk": 238,
    "fields": {
      "name": "여의도역",
      "line": "5",
      "region": "SE",
      "latitude": 37.521624,
      "longitude": 126.924191,
      "pcbang_count": 5
    }
  },
  {
    "model": "pc.subway",
    "pk": 239,
    "fields": {
      "name": "여의나루역",
      "line": "5",
      "region": "SE",
      "latitude": 37.527098,
      "longitude": 126.932901,
      "pcbang_count": 3
    }
  },
  {
    "model": "pc.subway",
    "pk": 240,
    "fields": {
      "name": "공덕역",
      "line": "5",
      "region": "SE",
      "latitude": 37.544018,
      "longitude": 126.951592,
      "pcbang_count": 17
    }
  },
  {
    "model": "pc.subway",
    "pk": 241,
    "fields": {
      "name": "애오개역",
      "line": "5",
      "region": "SE",
      "latitude": 37.553736,
      "longitude": 126.95682,
      "pcbang_count": 16
    }
  },
  {
    "model": "pc.subway",
    "pk": 242,
    "fields": {
      "name": "서대문역",
      "line": "5",
      "region": "SE",
      "latitude": 37.565773,
      "longitude": 126.966641,
      "pcbang_count": 11
    }
  },
  {
    "model": "pc.subway",
    "pk": 243,
    "fields": {
      "name": "광화문역",
      "line": "5",
      "region": "SE",
      "latitude": 37.571026,
      "longitude": 126.976669,
      "pcbang_count": 10
    }
  },
  {
    "model": "pc.subway",
    "pk": 244,
    "fields": {
      "name": "청구역",
      "line": "5",
      "region": "SE",
      "latitude": 37.560245,
      "longitude": 127.013828,
      "pcbang_count": 18
    }
  },
  {
    "model": "pc.subway",
    "pk": 245,
    "fields": {
      "name": "신금호역",
      "line": "5",
      "region": "SE",
      "latitude": 37.554548,
      "longitude": 127.020331,
      "pcbang_count": 16
    }
  },
  {
    "model": "pc.subway",
    "pk": 246,
    "fields": {
      "name": "행당역",
      "line": "5",
      "region": "SE",
      "latitude": 37.557322,
      "longitude": 127.029476,
      "pcbang_count": 23
    }
  },
  {
    "model": "pc.subway",
    "pk": 247,
    "fields": {
      "name": "마장역",
      "line": "5",
      "region": "SE",
      "latitude": 37.5661,
      "longitude": 127.042973,
      "pcbang_count": 26
    }
  },
  {
    "model": "pc.subway",
    "pk": 248,
    "fields": {
      "name": "장한평역",
      "line": "5",
      "region": "SE",
      "latitude": 37.56144,
      "longitude": 127.064623,
      "pcbang_count": 10
    }
  },
  {
    "model": "pc.subway",
    "pk": 249,
    "fields": {
      "name": "군자역",
      "line": "5",
      "region": "SE",
      "latitude": 37.557121,
      "longitude": 127.079542,
      "pcbang_count": 22
    }
  },
  {
    "model": "pc.subway",
    "pk": 250,
    "fields": {
      "name": "아차산역",
      "line": "5",
      "region": "SE",
      "latitude": 37.551691,
      "longitude": 127.089761,
      "pcbang_count": 18
    }
  },
  {
    "model": "pc.subway",
    "pk": 251,
    "fields": {
      "name": "광나루역",
      "line": "5",
      "region": "SE",
      "latitude": 37.545303,
      "longitude": 127.10357,
      "pcbang_count": 7
    }
  },
  {
    "model": "pc.subway",
    "pk": 252,
    "fields": {
      "name": "천호역",
      "line": "5",
      "region": "SE",
      "latitude": 37.538397,
      "longitude": 127.123572,
      "pcbang_count": 21
    }
  },
  {
    "model": "pc.subway",
    "pk": 253,
    "fields": {
      "name": "강동역",
      "line": "5",
      "region": "SE",
      "latitude": 37.535804,
      "longitude": 127.132481,
      "pcbang_count": 35
    }
  },
  {
    "model": "pc.subway",
    "pk": 254,
    "fields": {
      "name": "길동역",
      "line": "5",
      "region": "SE",
      "latitude": 37.537801,
      "longitude": 127.140004,
      "pcbang_count": 30
    }
  },
  {
    "model": "pc.subway",
    "pk": 255,
    "fields": {
      "name": "굽은다리역",
      "line": "5",
      "region": "SE",
      "latitude": 37.545477,
      "longitude": 127.142853,
      "pcbang_count": 23
    }
  },
  {
    "model": "pc.subway",
    "pk": 256,
    "fields": {
      "name": "명일역",
      "line": "5",
      "region": "SE",
      "latitude": 37.55137,
      "longitude": 127.143999,
      "pcbang_count": 17
    }
  },
  {
    "model": "pc.subway",
    "pk": 257,
    "fields": {
      "name": "고덕역",
      "line": "5",
      "region": "SE",
      "latitude": 37.555004,
      "longitude": 127.154151,
      "pcbang_count": 14
    }
  },
  {
    "model": "pc.subway",
    "pk": 258,
    "fields": {
      "name": "상일동역",
      "line": "5",
      "region": "SE",
      "latitude": 37.556712,
      "longitude": 127.166417,
      "pcbang_count": 14
    }
  },
  {
    "model": "pc.subway",
    "pk": 259,
    "fields": {
      "name": "올림픽공원역",
      "line": "5",
      "region": "SE",
      "latitude": 37.516078,
      "longitude": 127.130848,
      "pcbang_count": 12
    }
  },
  {
    "model": "pc.subway",
    "pk": 260,
    "fields": {
      "name": "오금역",
      "line": "5",
      "region": "SE",
      "latitude": 37.502162,
      "longitude": 127.128111,
      "pcbang_count": 23
    }
  },
  {
    "model": "pc.subway",
    "pk": 261,
    "fields": {
      "name": "개롱역",
      "line": "5",
      "region": "SE",
      "latitude": 37.498079,
      "longitude": 127.13482,
      "pcbang_count": 24
    }
  },
  {
    "model": "pc.subway",
    "pk": 262,
    "fields": {
      "name": "거여역",
      "line": "5",
      "region": "SE",
      "latitude": 37.493105,
      "longitude": 127.14415,
      "pcbang_count": 22
    }
  },
  {
    "model": "pc.subway",
    "pk": 263,
    "fields": {
      "name": "마천역",
      "line": "5",
      "region": "SE",
      "latitude": 37.49499,
      "longitude": 127.152781,
      "pcbang_count": 14
    }
  },
  {
    "model": "pc.subway",
    "pk": 264,
    "fields": {
      "name": "마포역",
      "line": "5",
      "region": "SE",
      "latitude": 37.539574,
      "longitude": 126.945932,
      "pcbang_count": 10
    }
  },
  {
    "model": "pc.subway",
    "pk": 265,
    "fields": {
      "name": "답십리역",
      "line": "5",
      "region": "SE",
      "latitude": 37.566747,
      "longitude": 127.052704,
      "pcbang_count": 16
    }
  },
  {
    "model": "pc.subway",
    "pk": 266,
    "fields": {
      "name": "둔촌동역",
      "line": "5",
      "region": "SE",
      "latitude": 37.527788,
      "longitude": 127.136248,
      "pcbang_count": 23
    }
  },
  {
    "model": "pc.subway",
    "pk": 267,
    "fields": {
      "name": "방화역",
      "line": "5",
      "region": "SE",
      "latitude": 37.577446,
      "longitude": 126.812741,
      "pcbang_count": 9
    }
  },
  {
    "model": "pc.subway",
    "pk": 268,
    "fields": {
      "name": "영등포시장역",
      "line": "5",
      "region": "SE",
      "latitude": 37.522669,
      "longitude": 126.905139,
      "pcbang_count": 14
    }
  },
  {
    "model": "pc.subway",
    "pk": 269,
    "fields": {
      "name": "방이역",
      "line": "5",
      "region": "SE",
      "latitude": 37.508857,
      "longitude": 127.126133,
      "pcbang_count": 16
    }
  },
  {
    "model": "pc.subway",
    "pk": 270,
    "fields": {
      "name": "역촌역",
      "line": "6",
      "region": "SE",
      "latitude": 37.606021,
      "longitude": 126.922744,
      "pcbang_count": 29
    }
  },
  {
    "model": "pc.subway",
    "pk": 271,
    "fields": {
      "name": "독바위역",
      "line": "6",
      "region": "SE",
      "latitude": 37.618456,
      "longitude": 126.933031,
      "pcbang_count": 10
    }
  },
  {
    "model": "pc.subway",
    "pk": 272,
    "fields": {
      "name": "구산역",
      "line": "6",
      "region": "SE",
      "latitude": 37.611377,
      "longitude": 126.91727,
      "pcbang_count": 28
    }
  },
  {
    "model": "pc.subway",
    "pk": 273,
    "fields": {
      "name": "증산역",
      "line": "6",
      "region": "SE",
      "latitude": 37.583876,
      "longitude": 126.909645,
      "pcbang_count": 19
    }
  },
  {
    "model": "pc.subway",
    "pk": 274,
    "fields": {
      "name": "디지털미디어시티역",
      "line": "6",
      "region": "SE",
      "latitude": 37.576646,
      "longitude": 126.900984,
      "pcbang_count": 12
    }
  },
  {
    "model": "pc.subway",
    "pk": 275,
    "fields": {
      "name": "월드컵경기장역",
      "line": "6",
      "region": "SE",
      "latitude": 37.569532,
      "longitude": 126.899298,
      "pcbang_count": 7
    }
  },
  {
    "model": "pc.subway",
    "pk": 276,
    "fields": {
      "name": "마포구청역",
      "line": "6",
      "region": "SE",
      "latitude": 37.563515,
      "longitude": 126.903343,
      "pcbang_count": 12
    }
  },
  {
    "model": "pc.subway",
    "pk": 277,
    "fields": {
      "name": "망원역",
      "line": "6",
      "region": "SE",
      "latitude": 37.556094,
      "longitude": 126.910052,
      "pcbang_count": 19
    }
  },
  {
    "model": "pc.subway",
    "pk": 278,
    "fields": {
      "name": "상수역",
      "line": "6",
      "region": "SE",
      "latitude": 37.547716,
      "longitude": 126.922852,
      "pcbang_count": 19
    }
  },
  {
    "model": "pc.subway",
    "pk": 279,
    "fields": {
      "name": "광흥창역",
      "line": "6",
      "region": "SE",
      "latitude": 37.547456,
      "longitude": 126.931993,
      "pcbang_count": 25
    }
  },
  {
    "model": "pc.subway",
    "pk": 280,
    "fields": {
      "name": "대흥역",
      "line": "6",
      "region": "SE",
      "latitude": 37.547771,
      "longitude": 126.942069,
      "pcbang_count": 22
    }
  },
  {
    "model": "pc.subway",
    "pk": 281,
    "fields": {
      "name": "효창공원앞역",
      "line": "6",
      "region": "SE",
      "latitude": 37.539261,
      "longitude": 126.961351,
      "pcbang_count": 17
    }
  },
  {
    "model": "pc.subway",
    "pk": 282,
    "fields": {
      "name": "이태원역",
      "line": "6",
      "region": "SE",
      "latitude": 37.534488,
      "longitude": 126.994302,
      "pcbang_count": 9
    }
  },
  {
    "model": "pc.subway",
    "pk": 283,
    "fields": {
      "name": "한강진역",
      "line": "6",
      "region": "SE",
      "latitude": 37.539631,
      "longitude": 127.001725,
      "pcbang_count": 7
    }
  },
  {
    "model": "pc.subway",
    "pk": 284,
    "fields": {
      "name": "버티고개역",
      "line": "6",
      "region": "SE",
      "latitude": 37.548013,
      "longitude": 127.007055,
      "pcbang_count": 5
    }
  },
  {
    "model": "pc.subway",
    "pk": 285,
    "fields": {
      "name": "창신역",
      "line": "6",
      "region": "SE",
      "latitude": 37.579661,
      "longitude": 127.015241,
      "pcbang_count": 18
    }
  },
  {
    "model": "pc.subway",
    "pk": 286,
    "fields": {
      "name": "보문역",
      "line": "6",
      "region": "SE",
      "latitude": 37.585286,
      "longitude": 127.019381,
      "pcbang_count": 20
    }
  },
  {
    "model": "pc.subway",
    "pk": 287,
    "fields": {
      "name": "안암역",
      "line": "6",
      "region": "SE",
      "latitude": 37.586272,
      "longitude": 127.029005,
      "pcbang_count": 23
    }
  },
  {
    "model": "pc.subway",
    "pk": 288,
    "fields": {
      "name": "고려대역",
      "line": "6",
      "region": "SE",
      "latitude": 37.590508,
      "longitude": 127.036296,
      "pcbang_count": 22
    }
  },
  {
    "model": "pc.subway",
    "pk": 289,
    "fields": {
      "name": "월곡역",
      "line": "6",
      "region": "SE",
      "latitude": 37.601948,
      "longitude": 127.041518,
      "pcbang_count": 18
    }
  },
  {
    "model": "pc.subway",
    "pk": 290,
    "fields": {
      "name": "상월곡역",
      "line": "6",
      "region": "SE",
      "latitude": 37.606377,
      "longitude": 127.048491,
      "pcbang_count": 16
    }
  },
  {
    "model": "pc.subway",
    "pk": 291,
    "fields": {
      "name": "돌곶이역",
      "line": "6",
      "region": "SE",
      "latitude": 37.610537,
      "longitude": 127.056431,
      "pcbang_count": 15
    }
  },
  {
    "model": "pc.subway",
    "pk": 292,
    "fields": {
      "name": "태릉입구역",
      "line": "6",
      "region": "SE",
      "latitude": 37.617983,
      "longitude": 127.07512,
      "pcbang_count": 18
    }
  },
  {
    "model": "pc.subway",
    "pk": 293,
    "fields": {
      "name": "화랑대역",
      "line": "6",
      "region": "SE",
      "latitude": 37.620064,
      "longitude": 127.084689,
      "pcbang_count": 17
    }
  },
  {
    "model": "pc.subway",
    "pk": 294,
    "fields": {
      "name": "봉화산역",
      "line": "6",
      "region": "SE",
      "latitude": 37.617283,
      "longitude": 127.091401,
      "pcbang_count": 4
    }
  },
  {
    "model": "pc.subway",
    "pk": 295,
    "fields": {
      "name": "새절역",
      "line": "6",
      "region": "SE",
      "latitude": 37.591148,
      "longitude": 126.913629,
      "pcbang_count": 23
    }
  },
  {
    "model": "pc.subway",
    "pk": 296,
    "fields": {
      "name": "녹사평역",
      "line": "6",
      "region": "SE",
      "latitude": 37.534675,
      "longitude": 126.986695,
      "pcbang_count": 4
    }
  },
  {
    "model": "pc.subway",
    "pk": 297,
    "fields": {
      "name": "응암역",
      "line": "6",
      "region": "SE",
      "latitude": 37.598605,
      "longitude": 126.915577,
      "pcbang_count": 24
    }
  },
  {
    "model": "pc.subway",
    "pk": 298,
    "fields": {
      "name": "장암역",
      "line": "7",
      "region": "SE",
      "latitude": 37.700109,
      "longitude": 127.053196,
      "pcbang_count": 1
    }
  },
  {
    "model": "pc.subway",
    "pk": 299,
    "fields": {
      "name": "수락산역",
      "line": "7",
      "region": "SE",
      "latitude": 37.67785,
      "longitude": 127.055315,
      "pcbang_count": 8
    }
  },
  {
    "model": "pc.subway",
    "pk": 300,
    "fields": {
      "name": "마들역",
      "line": "7",
      "region": "SE",
      "latitude": 37.66494,
      "longitude": 127.057675,
      "pcbang_count": 11
    }
  },
  {
    "model": "pc.subway",
    "pk": 301,
    "fields": {
      "name": "중계역",
      "line": "7",
      "region": "SE",
      "latitude": 37.644583,
      "longitude": 127.064303,
      "pcbang_count": 7
    }
  },
  {
    "model": "pc.subway",
    "pk": 302,
    "fields": {
      "name": "하계역",
      "line": "7",
      "region": "SE",
      "latitude": 37.636352,
      "longitude": 127.06799,
      "pcbang_count": 10
    }
  },
  {
    "model": "pc.subway",
    "pk": 303,
    "fields": {
      "name": "공릉역",
      "line": "7",
      "region": "SE",
      "latitude": 37.625742,
      "longitude": 127.072896,
      "pcbang_count": 15
    }
  },
  {
    "model": "pc.subway",
    "pk": 304,
    "fields": {
      "name": "먹골역",
      "line": "7",
      "region": "SE",
      "latitude": 37.610637,
      "longitude": 127.077725,
      "pcbang_count": 10
    }
  },
  {
    "model": "pc.subway",
    "pk": 305,
    "fields": {
      "name": "중화역",
      "line": "7",
      "region": "SE",
      "latitude": 37.602545,
      "longitude": 127.079264,
      "pcbang_count": 14
    }
  },
  {
    "model": "pc.subway",
    "pk": 306,
    "fields": {
      "name": "상봉역",
      "line": "7",
      "region": "SE",
      "latitude": 37.596362,
      "longitude": 127.085032,
      "pcbang_count": 27
    }
  },
  {
    "model": "pc.subway",
    "pk": 307,
    "fields": {
      "name": "면목역",
      "line": "7",
      "region": "SE",
      "latitude": 37.588579,
      "longitude": 127.087503,
      "pcbang_count": 30
    }
  },
  {
    "model": "pc.subway",
    "pk": 308,
    "fields": {
      "name": "사가정역",
      "line": "7",
      "region": "SE",
      "latitude": 37.580894,
      "longitude": 127.088478,
      "pcbang_count": 23
    }
  },
  {
    "model": "pc.subway",
    "pk": 309,
    "fields": {
      "name": "용마산역",
      "line": "7",
      "region": "SE",
      "latitude": 37.573647,
      "longitude": 127.086727,
      "pcbang_count": 17
    }
  },
  {
    "model": "pc.subway",
    "pk": 310,
    "fields": {
      "name": "중곡역",
      "line": "7",
      "region": "SE",
      "latitude": 37.565923,
      "longitude": 127.08432,
      "pcbang_count": 20
    }
  },
  {
    "model": "pc.subway",
    "pk": 311,
    "fields": {
      "name": "어린이대공원역",
      "line": "7",
      "region": "SE",
      "latitude": 37.548014,
      "longitude": 127.074658,
      "pcbang_count": 28
    }
  },
  {
    "model": "pc.subway",
    "pk": 312,
    "fields": {
      "name": "뚝섬유원지역",
      "line": "7",
      "region": "SE",
      "latitude": 37.53154,
      "longitude": 127.066704,
      "pcbang_count": 12
    }
  },
  {
    "model": "pc.subway",
    "pk": 313,
    "fields": {
      "name": "청담역",
      "line": "7",
      "region": "SE",
      "latitude": 37.519365,
      "longitude": 127.05335,
      "pcbang_count": 9
    }
  },
  {
    "model": "pc.subway",
    "pk": 314,
    "fields": {
      "name": "강남구청역",
      "line": "7",
      "region": "SE",
      "latitude": 37.517186,
      "longitude": 127.04128,
      "pcbang_count": 15
    }
  },
  {
    "model": "pc.subway",
    "pk": 315,
    "fields": {
      "name": "논현역",
      "line": "7",
      "region": "SE",
      "latitude": 37.511093,
      "longitude": 127.021415,
      "pcbang_count": 23
    }
  },
  {
    "model": "pc.subway",
    "pk": 316,
    "fields": {
      "name": "반포역",
      "line": "7",
      "region": "SE",
      "latitude": 37.508178,
      "longitude": 127.011727,
      "pcbang_count": 15
    }
  },
  {
    "model": "pc.subway",
    "pk": 317,
    "fields": {
      "name": "내방역",
      "line": "7",
      "region": "SE",
      "latitude": 37.487618,
      "longitude": 126.993513,
      "pcbang_count": 16
    }
  },
  {
    "model": "pc.subway",
    "pk": 318,
    "fields": {
      "name": "숭실대입구역",
      "line": "7",
      "region": "SE",
      "latitude": 37.496029,
      "longitude": 126.953822,
      "pcbang_count": 15
    }
  },
  {
    "model": "pc.subway",
    "pk": 319,
    "fields": {
      "name": "상도역",
      "line": "7",
      "region": "SE",
      "latitude": 37.502834,
      "longitude": 126.94791,
      "pcbang_count": 28
    }
  },
  {
    "model": "pc.subway",
    "pk": 320,
    "fields": {
      "name": "장승배기역",
      "line": "7",
      "region": "SE",
      "latitude": 37.504898,
      "longitude": 126.93915,
      "pcbang_count": 48
    }
  },
  {
    "model": "pc.subway",
    "pk": 321,
    "fields": {
      "name": "신대방삼거리역",
      "line": "7",
      "region": "SE",
      "latitude": 37.499701,
      "longitude": 126.928276,
      "pcbang_count": 23
    }
  },
  {
    "model": "pc.subway",
    "pk": 322,
    "fields": {
      "name": "보라매역",
      "line": "7",
      "region": "SE",
      "latitude": 37.499872,
      "longitude": 126.920428,
      "pcbang_count": 23
    }
  },
  {
    "model": "pc.subway",
    "pk": 323,
    "fields": {
      "name": "남구로역",
      "line": "7",
      "region": "SE",
      "latitude": 37.486056,
      "longitude": 126.887249,
      "pcbang_count": 22
    }
  },
  {
    "model": "pc.subway",
    "pk": 324,
    "fields": {
      "name": "광명사거리역",
      "line": "7",
      "region": "SE",
      "latitude": 37.479252,
      "longitude": 126.854876,
      "pcbang_count": 27
    }
  },
  {
    "model": "pc.subway",
    "pk": 325,
    "fields": {
      "name": "천왕역",
      "line": "7",
      "region": "SE",
      "latitude": 37.486637,
      "longitude": 126.838713,
      "pcbang_count": 9
    }
  },
  {
    "model": "pc.subway",
    "pk": 326,
    "fields": {
      "name": "까치울역",
      "line": "7",
      "region": "SE",
      "latitude": 37.506207,
      "longitude": 126.810939,
      "pcbang_count": 0
    }
  },
  {
    "model": "pc.subway",
    "pk": 327,
    "fields": {
      "name": "부천종합운동장역",
      "line": "7",
      "region": "SE",
      "latitude": 37.50538,
      "longitude": 126.797337,
      "pcbang_count": 4
    }
  },
  {
    "model": "pc.subway",
    "pk": 328,
    "fields": {
      "name": "굴포천역",
      "line": "7",
      "region": "SE",
      "latitude": 37.506997,
      "longitude": 126.73128,
      "pcbang_count": 18
    }
  },
  {
    "model": "pc.subway",
    "pk": 329,
    "fields": {
      "name": "학동역",
      "line": "7",
      "region": "SE",
      "latitude": 37.514229,
      "longitude": 127.031656,
      "pcbang_count": 27
    }
  },
  {
    "model": "pc.subway",
    "pk": 330,
    "fields": {
      "name": "남성역",
      "line": "7",
      "region": "SE",
      "latitude": 37.484596,
      "longitude": 126.971251,
      "pcbang_count": 26
    }
  },
  {
    "model": "pc.subway",
    "pk": 331,
    "fields": {
      "name": "신풍역",
      "line": "7",
      "region": "SE",
      "latitude": 37.50008,
      "longitude": 126.90993,
      "pcbang_count": 23
    }
  },
  {
    "model": "pc.subway",
    "pk": 332,
    "fields": {
      "name": "춘의역",
      "line": "7",
      "region": "SE",
      "latitude": 37.503663,
      "longitude": 126.787036,
      "pcbang_count": 14
    }
  },
  {
    "model": "pc.subway",
    "pk": 333,
    "fields": {
      "name": "신중동역",
      "line": "7",
      "region": "SE",
      "latitude": 37.503048,
      "longitude": 126.77596,
      "pcbang_count": 18
    }
  },
  {
    "model": "pc.subway",
    "pk": 334,
    "fields": {
      "name": "부천시청역",
      "line": "7",
      "region": "SE",
      "latitude": 37.504631,
      "longitude": 126.763538,
      "pcbang_count": 21
    }
  },
  {
    "model": "pc.subway",
    "pk": 335,
    "fields": {
      "name": "상동역",
      "line": "7",
      "region": "SE",
      "latitude": 37.505781,
      "longitude": 126.753083,
      "pcbang_count": 15
    }
  },
  {
    "model": "pc.subway",
    "pk": 336,
    "fields": {
      "name": "삼산체육관역",
      "line": "7",
      "region": "SE",
      "latitude": 37.506411,
      "longitude": 126.742153,
      "pcbang_count": 19
    }
  },
  {
    "model": "pc.subway",
    "pk": 337,
    "fields": {
      "name": "철산역",
      "line": "7",
      "region": "SE",
      "latitude": 37.47605,
      "longitude": 126.867911,
      "pcbang_count": 14
    }
  },
  {
    "model": "pc.subway",
    "pk": 338,
    "fields": {
      "name": "신흥역",
      "line": "8",
      "region": "SE",
      "latitude": 37.440918,
      "longitude": 127.147564,
      "pcbang_count": 27
    }
  },
  {
    "model": "pc.subway",
    "pk": 339,
    "fields": {
      "name": "수진역",
      "line": "8",
      "region": "SE",
      "latitude": 37.437428,
      "longitude": 127.140722,
      "pcbang_count": 41
    }
  },
  {
    "model": "pc.subway",
    "pk": 340,
    "fields": {
      "name": "강동구청역",
      "line": "8",
      "region": "SE",
      "latitude": 37.530341,
      "longitude": 127.120508,
      "pcbang_count": 17
    }
  },
  {
    "model": "pc.subway",
    "pk": 341,
    "fields": {
      "name": "몽촌토성역",
      "line": "8",
      "region": "SE",
      "latitude": 37.517409,
      "longitude": 127.112359,
      "pcbang_count": 10
    }
  },
  {
    "model": "pc.subway",
    "pk": 342,
    "fields": {
      "name": "석촌역",
      "line": "8",
      "region": "SE",
      "latitude": 37.505431,
      "longitude": 127.106979,
      "pcbang_count": 21
    }
  },
  {
    "model": "pc.subway",
    "pk": 343,
    "fields": {
      "name": "송파역",
      "line": "8",
      "region": "SE",
      "latitude": 37.499703,
      "longitude": 127.112183,
      "pcbang_count": 17
    }
  },
  {
    "model": "pc.subway",
    "pk": 344,
    "fields": {
      "name": "가락시장역",
      "line": "8",
      "region": "SE",
      "latitude": 37.492522,
      "longitude": 127.118234,
      "pcbang_count": 13
    }
  },
  {
    "model": "pc.subway",
    "pk": 345,
    "fields": {
      "name": "문정역",
      "line": "8",
      "region": "SE",
      "latitude": 37.485855,
      "longitude": 127.1225,
      "pcbang_count": 12
    }
  },
  {
    "model": "pc.subway",
    "pk": 346,
    "fields": {
      "name": "장지역",
      "line": "8",
      "region": "SE",
      "latitude": 37.478703,
      "longitude": 127.126191,
      "pcbang_count": 2
    }
  },
  {
    "model": "pc.subway",
    "pk": 347,
    "fields": {
      "name": "남한산성입구역",
      "line": "8",
      "region": "SE",
      "latitude": 37.451535,
      "longitude": 127.159816,
      "pcbang_count": 26
    }
  },
  {
    "model": "pc.subway",
    "pk": 348,
    "fields": {
      "name": "암사역",
      "line": "8",
      "region": "SE",
      "latitude": 37.55021,
      "longitude": 127.127562,
      "pcbang_count": 17
    }
  },
  {
    "model": "pc.subway",
    "pk": 349,
    "fields": {
      "name": "단대오거리역",
      "line": "8",
      "region": "SE",
      "latitude": 37.44521,
      "longitude": 127.156866,
      "pcbang_count": 28
    }
  },
  {
    "model": "pc.subway",
    "pk": 350,
    "fields": {
      "name": "산성역",
      "line": "8",
      "region": "SE",
      "latitude": 37.457122,
      "longitude": 127.149908,
      "pcbang_count": 10
    }
  },
  {
    "model": "pc.subway",
    "pk": 351,
    "fields": {
      "name": "신흥역",
      "line": "8",
      "region": "SE",
      "latitude": 37.440918,
      "longitude": 127.147564,
      "pcbang_count": 27
    }
  },
  {
    "model": "pc.subway",
    "pk": 352,
    "fields": {
      "name": "수진역",
      "line": "8",
      "region": "SE",
      "latitude": 37.437428,
      "longitude": 127.140722,
      "pcbang_count": 41
    }
  },
  {
    "model": "pc.subway",
    "pk": 353,
    "fields": {
      "name": "강동구청역",
      "line": "8",
      "region": "SE",
      "latitude": 37.530341,
      "longitude": 127.120508,
      "pcbang_count": 17
    }
  },
  {
    "model": "pc.subway",
    "pk": 354,
    "fields": {
      "name": "몽촌토성역",
      "line": "8",
      "region": "SE",
      "latitude": 37.517409,
      "longitude": 127.112359,
      "pcbang_count": 10
    }
  },
  {
    "model": "pc.subway",
    "pk": 355,
    "fields": {
      "name": "석촌역",
      "line": "8",
      "region": "SE",
      "latitude": 37.505431,
      "longitude": 127.106979,
      "pcbang_count": 21
    }
  },
  {
    "model": "pc.subway",
    "pk": 356,
    "fields": {
      "name": "송파역",
      "line": "8",
      "region": "SE",
      "latitude": 37.499703,
      "longitude": 127.112183,
      "pcbang_count": 17
    }
  },
  {
    "model": "pc.subway",
    "pk": 357,
    "fields": {
      "name": "가락시장역",
      "line": "8",
      "region": "SE",
      "latitude": 37.492522,
      "longitude": 127.118234,
      "pcbang_count": 13
    }
  },
  {
    "model": "pc.subway",
    "pk": 358,
    "fields": {
      "name": "문정역",
      "line": "8",
      "region": "SE",
      "latitude": 37.485855,
      "longitude": 127.1225,
      "pcbang_count": 12
    }
  },
  {
    "model": "pc.subway",
    "pk": 359,
    "fields": {
      "name": "장지역",
      "line": "8",
      "region": "SE",
      "latitude": 37.478703,
      "longitude": 127.126191,
      "pcbang_count": 2
    }
  },
  {
    "model": "pc.subway",
    "pk": 360,
    "fields": {
      "name": "남한산성입구역",
      "line": "8",
      "region": "SE",
      "latitude": 37.451535,
      "longitude": 127.159816,
      "pcbang_count": 26
    }
  },
  {
    "model": "pc.subway",
    "pk": 361,
    "fields": {
      "name": "암사역",
      "line": "8",
      "region": "SE",
      "latitude": 37.55021,
      "longitude": 127.127562,
      "pcbang_count": 17
    }
  },
  {
    "model": "pc.subway",
    "pk": 362,
    "fields": {
      "name": "단대오거리역",
      "line": "8",
      "region": "SE",
      "latitude": 37.44521,
      "longitude": 127.156866,
      "pcbang_count": 28
    }
  },
  {
    "model": "pc.subway",
    "pk": 363,
    "fields": {
      "name": "산성역",
      "line": "8",
      "region": "SE",
      "latitude": 37.457122,
      "longitude": 127.149908,
      "pcbang_count": 10
    }
  },
  {
    "model": "pc.subway",
    "pk": 364,
    "fields": {
      "name": "귤현역",
      "line": "I",
      "region": "SE",
      "latitude": 37.566379,
      "longitude": 126.742654,
      "pcbang_count": 0
    }
  },
  {
    "model": "pc.subway",
    "pk": 365,
    "fields": {
      "name": "박촌역",
      "line": "I",
      "region": "SE",
      "latitude": 37.553703,
      "longitude": 126.745077,
      "pcbang_count": 11
    }
  },
  {
    "model": "pc.subway",
    "pk": 366,
    "fields": {
      "name": "계산역",
      "line": "I",
      "region": "SE",
      "latitude": 37.543238,
      "longitude": 126.728128,
      "pcbang_count": 26
    }
  },
  {
    "model": "pc.subway",
    "pk": 367,
    "fields": {
      "name": "경인교대입구역",
      "line": "I",
      "region": "SE",
      "latitude": 37.538157,
      "longitude": 126.722597,
      "pcbang_count": 25
    }
  },
  {
    "model": "pc.subway",
    "pk": 368,
    "fields": {
      "name": "부평구청역",
      "line": "I",
      "region": "SE",
      "latitude": 37.508336,
      "longitude": 126.720548,
      "pcbang_count": 17
    }
  },
  {
    "model": "pc.subway",
    "pk": 369,
    "fields": {
      "name": "간석오거리역",
      "line": "I",
      "region": "SE",
      "latitude": 37.467048,
      "longitude": 126.707938,
      "pcbang_count": 20
    }
  },
  {
    "model": "pc.subway",
    "pk": 370,
    "fields": {
      "name": "문학경기장역",
      "line": "I",
      "region": "SE",
      "latitude": 37.434935,
      "longitude": 126.698579,
      "pcbang_count": 2
    }
  },
  {
    "model": "pc.subway",
    "pk": 371,
    "fields": {
      "name": "신연수역",
      "line": "I",
      "region": "SE",
      "latitude": 37.41804,
      "longitude": 126.693863,
      "pcbang_count": 14
    }
  },
  {
    "model": "pc.subway",
    "pk": 372,
    "fields": {
      "name": "원인재역",
      "line": "I",
      "region": "SE",
      "latitude": 37.412603,
      "longitude": 126.687389,
      "pcbang_count": 13
    }
  },
  {
    "model": "pc.subway",
    "pk": 373,
    "fields": {
      "name": "캠퍼스타운역",
      "line": "I",
      "region": "SE",
      "latitude": 37.387855,
      "longitude": 126.661673,
      "pcbang_count": 6
    }
  },
  {
    "model": "pc.subway",
    "pk": 374,
    "fields": {
      "name": "테크노파크역",
      "line": "I",
      "region": "SE",
      "latitude": 37.382268,
      "longitude": 126.656365,
      "pcbang_count": 1
    }
  },
  {
    "model": "pc.subway",
    "pk": 375,
    "fields": {
      "name": "인천대입구역",
      "line": "I",
      "region": "SE",
      "latitude": 37.386007,
      "longitude": 126.639484,
      "pcbang_count": 3
    }
  },
  {
    "model": "pc.subway",
    "pk": 376,
    "fields": {
      "name": "국제업무지구역",
      "line": "I",
      "region": "SE",
      "latitude": 37.399907,
      "longitude": 126.630347,
      "pcbang_count": 0
    }
  },
  {
    "model": "pc.subway",
    "pk": 377,
    "fields": {
      "name": "계양역",
      "line": "I",
      "region": "SE",
      "latitude": 37.571462,
      "longitude": 126.735637,
      "pcbang_count": 1
    }
  },
  {
    "model": "pc.subway",
    "pk": 378,
    "fields": {
      "name": "임학역",
      "line": "I",
      "region": "SE",
      "latitude": 37.545059,
      "longitude": 126.738665,
      "pcbang_count": 18
    }
  },
  {
    "model": "pc.subway",
    "pk": 379,
    "fields": {
      "name": "작전역",
      "line": "I",
      "region": "SE",
      "latitude": 37.530415,
      "longitude": 126.722527,
      "pcbang_count": 19
    }
  },
  {
    "model": "pc.subway",
    "pk": 380,
    "fields": {
      "name": "부평시장역",
      "line": "I",
      "region": "SE",
      "latitude": 37.498383,
      "longitude": 126.722244,
      "pcbang_count": 31
    }
  },
  {
    "model": "pc.subway",
    "pk": 381,
    "fields": {
      "name": "동수역",
      "line": "I",
      "region": "SE",
      "latitude": 37.485312,
      "longitude": 126.718247,
      "pcbang_count": 21
    }
  },
  {
    "model": "pc.subway",
    "pk": 382,
    "fields": {
      "name": "부평삼거리역",
      "line": "I",
      "region": "SE",
      "latitude": 37.477679,
      "longitude": 126.710208,
      "pcbang_count": 10
    }
  },
  {
    "model": "pc.subway",
    "pk": 383,
    "fields": {
      "name": "인천시청역",
      "line": "I",
      "region": "SE",
      "latitude": 37.457405,
      "longitude": 126.702221,
      "pcbang_count": 18
    }
  },
  {
    "model": "pc.subway",
    "pk": 384,
    "fields": {
      "name": "예술회관역",
      "line": "I",
      "region": "SE",
      "latitude": 37.449396,
      "longitude": 126.701012,
      "pcbang_count": 24
    }
  },
  {
    "model": "pc.subway",
    "pk": 385,
    "fields": {
      "name": "인천터미널역",
      "line": "I",
      "region": "SE",
      "latitude": 37.442383,
      "longitude": 126.699706,
      "pcbang_count": 19
    }
  },
  {
    "model": "pc.subway",
    "pk": 386,
    "fields": {
      "name": "선학역",
      "line": "I",
      "region": "SE",
      "latitude": 37.426684,
      "longitude": 126.698863,
      "pcbang_count": 6
    }
  },
  {
    "model": "pc.subway",
    "pk": 387,
    "fields": {
      "name": "동춘역",
      "line": "I",
      "region": "SE",
      "latitude": 37.404737,
      "longitude": 126.681015,
      "pcbang_count": 10
    }
  },
  {
    "model": "pc.subway",
    "pk": 388,
    "fields": {
      "name": "동막역",
      "line": "I",
      "region": "SE",
      "latitude": 37.397878,
      "longitude": 126.674005,
      "pcbang_count": 1
    }
  },
  {
    "model": "pc.subway",
    "pk": 389,
    "fields": {
      "name": "지식정보단지역",
      "line": "I",
      "region": "SE",
      "latitude": 37.378384,
      "longitude": 126.645168,
      "pcbang_count": 1
    }
  },
  {
    "model": "pc.subway",
    "pk": 390,
    "fields": {
      "name": "센트럴파크역",
      "line": "I",
      "region": "SE",
      "latitude": 37.393054,
      "longitude": 126.634729,
      "pcbang_count": 0
    }
  },
  {
    "model": "pc.subway",
    "pk": 391,
    "fields": {
      "name": "갈산역",
      "line": "I",
      "region": "SE",
      "latitude": 37.517268,
      "longitude": 126.721514,
      "pcbang_count": 8
    }
  },
  {
    "model": "pc.subway",
    "pk": 392,
    "fields": {
      "name": "서빙고역",
      "line": "K",
      "region": "SE",
      "latitude": 37.519594,
      "longitude": 126.988537,
      "pcbang_count": 4
    }
  },
  {
    "model": "pc.subway",
    "pk": 393,
    "fields": {
      "name": "한남역",
      "line": "K",
      "region": "SE",
      "latitude": 37.52943,
      "longitude": 127.009169,
      "pcbang_count": 8
    }
  },
  {
    "model": "pc.subway",
    "pk": 394,
    "fields": {
      "name": "응봉역",
      "line": "K",
      "region": "SE",
      "latitude": 37.549946,
      "longitude": 127.034538,
      "pcbang_count": 6
    }
  },
  {
    "model": "pc.subway",
    "pk": 395,
    "fields": {
      "name": "중랑역",
      "line": "K",
      "region": "SE",
      "latitude": 37.594917,
      "longitude": 127.076116,
      "pcbang_count": 15
    }
  },
  {
    "model": "pc.subway",
    "pk": 396,
    "fields": {
      "name": "망우역",
      "line": "K",
      "region": "SE",
      "latitude": 37.59955,
      "longitude": 127.091909,
      "pcbang_count": 19
    }
  },
  {
    "model": "pc.subway",
    "pk": 397,
    "fields": {
      "name": "양원역",
      "line": "K",
      "region": "SE",
      "latitude": 37.606596,
      "longitude": 127.107906,
      "pcbang_count": 9
    }
  },
  {
    "model": "pc.subway",
    "pk": 398,
    "fields": {
      "name": "구리역",
      "line": "K",
      "region": "SE",
      "latitude": 37.603392,
      "longitude": 127.143869,
      "pcbang_count": 20
    }
  },
  {
    "model": "pc.subway",
    "pk": 399,
    "fields": {
      "name": "도농역",
      "line": "K",
      "region": "SE",
      "latitude": 37.608806,
      "longitude": 127.161153,
      "pcbang_count": 7
    }
  },
  {
    "model": "pc.subway",
    "pk": 400,
    "fields": {
      "name": "양정역",
      "line": "K",
      "region": "SE",
      "latitude": 37.60533,
      "longitude": 127.19364,
      "pcbang_count": 0
    }
  },
  {
    "model": "pc.subway",
    "pk": 401,
    "fields": {
      "name": "덕소역",
      "line": "K",
      "region": "SE",
      "latitude": 37.586781,
      "longitude": 127.208832,
      "pcbang_count": 5
    }
  },
  {
    "model": "pc.subway",
    "pk": 402,
    "fields": {
      "name": "도심역",
      "line": "K",
      "region": "SE",
      "latitude": 37.579622,
      "longitude": 127.222672,
      "pcbang_count": 6
    }
  },
  {
    "model": "pc.subway",
    "pk": 403,
    "fields": {
      "name": "팔당역",
      "line": "K",
      "region": "SE",
      "latitude": 37.547371,
      "longitude": 127.243939,
      "pcbang_count": 0
    }
  },
  {
    "model": "pc.subway",
    "pk": 404,
    "fields": {
      "name": "운길산역",
      "line": "K",
      "region": "SE",
      "latitude": 37.554669,
      "longitude": 127.310115,
      "pcbang_count": 0
    }
  },
  {
    "model": "pc.subway",
    "pk": 405,
    "fields": {
      "name": "양수역",
      "line": "K",
      "region": "SE",
      "latitude": 37.545981,
      "longitude": 127.329098,
      "pcbang_count": 1
    }
  },
  {
    "model": "pc.subway",
    "pk": 406,
    "fields": {
      "name": "신원역",
      "line": "K",
      "region": "SE",
      "latitude": 37.525545,
      "longitude": 127.372921,
      "pcbang_count": 0
    }
  },
  {
    "model": "pc.subway",
    "pk": 407,
    "fields": {
      "name": "국수역",
      "line": "K",
      "region": "SE",
      "latitude": 37.516169,
      "longitude": 127.399367,
      "pcbang_count": 0
    }
  },
  {
    "model": "pc.subway",
    "pk": 408,
    "fields": {
      "name": "아신역",
      "line": "K",
      "region": "SE",
      "latitude": 37.51382,
      "longitude": 127.443173,
      "pcbang_count": 0
    }
  },
  {
    "model": "pc.subway",
    "pk": 409,
    "fields": {
      "name": "오빈역",
      "line": "K",
      "region": "SE",
      "latitude": 37.506062,
      "longitude": 127.473868,
      "pcbang_count": 0
    }
  },
  {
    "model": "pc.subway",
    "pk": 410,
    "fields": {
      "name": "양평역",
      "line": "K",
      "region": "SE",
      "latitude": 37.492832,
      "longitude": 127.491814,
      "pcbang_count": 10
    }
  },
  {
    "model": "pc.subway",
    "pk": 411,
    "fields": {
      "name": "원덕역",
      "line": "K",
      "region": "SE",
      "latitude": 37.468672,
      "longitude": 127.547076,
      "pcbang_count": 0
    }
  },
  {
    "model": "pc.subway",
    "pk": 412,
    "fields": {
      "name": "용문역",
      "line": "K",
      "region": "SE",
      "latitude": 37.48223,
      "longitude": 127.594647,
      "pcbang_count": 3
    }
  },
  {
    "model": "pc.subway",
    "pk": 413,
    "fields": {
      "name": "서울역",
      "line": "K",
      "region": "SE",
      "latitude": 37.556328,
      "longitude": 126.969522,
      "pcbang_count": 11
    }
  },
  {
    "model": "pc.subway",
    "pk": 414,
    "fields": {
      "name": "신촌역",
      "line": "K",
      "region": "SE",
      "latitude": 37.559783,
      "longitude": 126.942319,
      "pcbang_count": 18
    }
  },
  {
    "model": "pc.subway",
    "pk": 415,
    "fields": {
      "name": "서강대역",
      "line": "K",
      "region": "SE",
      "latitude": 37.551881,
      "longitude": 126.935711,
      "pcbang_count": 28
    }
  },
  {
    "model": "pc.subway",
    "pk": 416,
    "fields": {
      "name": "가좌역",
      "line": "K",
      "region": "SE",
      "latitude": 37.568491,
      "longitude": 126.915487,
      "pcbang_count": 10
    }
  },
  {
    "model": "pc.subway",
    "pk": 417,
    "fields": {
      "name": "수색역",
      "line": "K",
      "region": "SE",
      "latitude": 37.580842,
      "longitude": 126.895611,
      "pcbang_count": 5
    }
  },
  {
    "model": "pc.subway",
    "pk": 418,
    "fields": {
      "name": "화전역",
      "line": "K",
      "region": "SE",
      "latitude": 37.602888,
      "longitude": 126.868387,
      "pcbang_count": 1
    }
  },
  {
    "model": "pc.subway",
    "pk": 419,
    "fields": {
      "name": "행신역",
      "line": "K",
      "region": "SE",
      "latitude": 37.612102,
      "longitude": 126.834146,
      "pcbang_count": 11
    }
  },
  {
    "model": "pc.subway",
    "pk": 420,
    "fields": {
      "name": "능곡역",
      "line": "K",
      "region": "SE",
      "latitude": 37.618808,
      "longitude": 126.820783,
      "pcbang_count": 12
    }
  },
  {
    "model": "pc.subway",
    "pk": 421,
    "fields": {
      "name": "곡산역",
      "line": "K",
      "region": "SE",
      "latitude": 37.645676,
      "longitude": 126.801762,
      "pcbang_count": 2
    }
  },
  {
    "model": "pc.subway",
    "pk": 422,
    "fields": {
      "name": "백마역",
      "line": "K",
      "region": "SE",
      "latitude": 37.658239,
      "longitude": 126.794461,
      "pcbang_count": 10
    }
  },
  {
    "model": "pc.subway",
    "pk": 423,
    "fields": {
      "name": "풍산역",
      "line": "K",
      "region": "SE",
      "latitude": 37.672346,
      "longitude": 126.786243,
      "pcbang_count": 6
    }
  },
  {
    "model": "pc.subway",
    "pk": 424,
    "fields": {
      "name": "일산역",
      "line": "K",
      "region": "SE",
      "latitude": 37.682077,
      "longitude": 126.769846,
      "pcbang_count": 29
    }
  },
  {
    "model": "pc.subway",
    "pk": 425,
    "fields": {
      "name": "운정역",
      "line": "K",
      "region": "SE",
      "latitude": 37.725826,
      "longitude": 126.767257,
      "pcbang_count": 0
    }
  },
  {
    "model": "pc.subway",
    "pk": 426,
    "fields": {
      "name": "금릉역",
      "line": "K",
      "region": "SE",
      "latitude": 37.751322,
      "longitude": 126.765347,
      "pcbang_count": 9
    }
  },
  {
    "model": "pc.subway",
    "pk": 427,
    "fields": {
      "name": "월롱역",
      "line": "K",
      "region": "SE",
      "latitude": 37.796188,
      "longitude": 126.792587,
      "pcbang_count": 0
    }
  },
  {
    "model": "pc.subway",
    "pk": 428,
    "fields": {
      "name": "파주역",
      "line": "K",
      "region": "SE",
      "latitude": 37.815298,
      "longitude": 126.792783,
      "pcbang_count": 0
    }
  },
  {
    "model": "pc.subway",
    "pk": 429,
    "fields": {
      "name": "문산역",
      "line": "K",
      "region": "SE",
      "latitude": 37.854619,
      "longitude": 126.788047,
      "pcbang_count": 5
    }
  },
  {
    "model": "pc.subway",
    "pk": 430,
    "fields": {
      "name": "탄현역",
      "line": "K",
      "region": "SE",
      "latitude": 37.694023,
      "longitude": 126.761086,
      "pcbang_count": 13
    }
  },
  {
    "model": "pc.subway",
    "pk": 431,
    "fields": {
      "name": "금촌역",
      "line": "K",
      "region": "SE",
      "latitude": 37.766217,
      "longitude": 126.774644,
      "pcbang_count": 11
    }
  },
  {
    "model": "pc.subway",
    "pk": 432,
    "fields": {
      "name": "야당역",
      "line": "K",
      "region": "SE",
      "latitude": 37.712327,
      "longitude": 126.761356,
      "pcbang_count": 1
    }
  },
  {
    "model": "pc.subway",
    "pk": 433,
    "fields": {
      "name": "강매역",
      "line": "K",
      "region": "SE",
      "latitude": 37.612314,
      "longitude": 126.843223,
      "pcbang_count": 11
    }
  },
  {
    "model": "pc.subway",
    "pk": 434,
    "fields": {
      "name": "오리역",
      "line": "B",
      "region": "SE",
      "latitude": 37.339824,
      "longitude": 127.108942,
      "pcbang_count": 6
    }
  },
  {
    "model": "pc.subway",
    "pk": 435,
    "fields": {
      "name": "압구정로데오역",
      "line": "B",
      "region": "SE",
      "latitude": 37.527381,
      "longitude": 127.040534,
      "pcbang_count": 7
    }
  },
  {
    "model": "pc.subway",
    "pk": 436,
    "fields": {
      "name": "선정릉역",
      "line": "B",
      "region": "SE",
      "latitude": 37.51098,
      "longitude": 127.043593,
      "pcbang_count": 23
    }
  },
  {
    "model": "pc.subway",
    "pk": 437,
    "fields": {
      "name": "가천대역",
      "line": "B",
      "region": "SE",
      "latitude": 37.448605,
      "longitude": 127.126697,
      "pcbang_count": 21
    }
  },
  {
    "model": "pc.subway",
    "pk": 438,
    "fields": {
      "name": "태평역",
      "line": "B",
      "region": "SE",
      "latitude": 37.440019,
      "longitude": 127.127709,
      "pcbang_count": 24
    }
  },
  {
    "model": "pc.subway",
    "pk": 439,
    "fields": {
      "name": "모란역",
      "line": "B",
      "region": "SE",
      "latitude": 37.43213,
      "longitude": 127.129087,
      "pcbang_count": 19
    }
  },
  {
    "model": "pc.subway",
    "pk": 440,
    "fields": {
      "name": "야탑역",
      "line": "B",
      "region": "SE",
      "latitude": 37.411185,
      "longitude": 127.128715,
      "pcbang_count": 12
    }
  },
  {
    "model": "pc.subway",
    "pk": 441,
    "fields": {
      "name": "서현역",
      "line": "B",
      "region": "SE",
      "latitude": 37.385126,
      "longitude": 127.123592,
      "pcbang_count": 15
    }
  },
  {
    "model": "pc.subway",
    "pk": 442,
    "fields": {
      "name": "수내역",
      "line": "B",
      "region": "SE",
      "latitude": 37.378455,
      "longitude": 127.114322,
      "pcbang_count": 16
    }
  },
  {
    "model": "pc.subway",
    "pk": 443,
    "fields": {
      "name": "정자역",
      "line": "B",
      "region": "SE",
      "latitude": 37.36706,
      "longitude": 127.108105,
      "pcbang_count": 7
    }
  },
  {
    "model": "pc.subway",
    "pk": 444,
    "fields": {
      "name": "미금역",
      "line": "B",
      "region": "SE",
      "latitude": 37.350077,
      "longitude": 127.10891,
      "pcbang_count": 8
    }
  },
  {
    "model": "pc.subway",
    "pk": 445,
    "fields": {
      "name": "이매역",
      "line": "B",
      "region": "SE",
      "latitude": 37.396104,
      "longitude": 127.12827,
      "pcbang_count": 1
    }
  },
  {
    "model": "pc.subway",
    "pk": 446,
    "fields": {
      "name": "보정역",
      "line": "B",
      "region": "SE",
      "latitude": 37.312752,
      "longitude": 127.108196,
      "pcbang_count": 5
    }
  },
  {
    "model": "pc.subway",
    "pk": 447,
    "fields": {
      "name": "죽전역",
      "line": "B",
      "region": "SE",
      "latitude": 37.324753,
      "longitude": 127.107395,
      "pcbang_count": 12
    }
  },
  {
    "model": "pc.subway",
    "pk": 448,
    "fields": {
      "name": "신갈역",
      "line": "B",
      "region": "SE",
      "latitude": 37.286102,
      "longitude": 127.111313,
      "pcbang_count": 9
    }
  },
  {
    "model": "pc.subway",
    "pk": 449,
    "fields": {
      "name": "기흥역",
      "line": "B",
      "region": "SE",
      "latitude": 37.275619,
      "longitude": 127.115936,
      "pcbang_count": 12
    }
  },
  {
    "model": "pc.subway",
    "pk": 450,
    "fields": {
      "name": "청명역",
      "line": "B",
      "region": "SE",
      "latitude": 37.259489,
      "longitude": 127.078934,
      "pcbang_count": 11
    }
  },
  {
    "model": "pc.subway",
    "pk": 451,
    "fields": {
      "name": "영통역",
      "line": "B",
      "region": "SE",
      "latitude": 37.251568,
      "longitude": 127.071394,
      "pcbang_count": 20
    }
  },
  {
    "model": "pc.subway",
    "pk": 452,
    "fields": {
      "name": "매탄권선역",
      "line": "B",
      "region": "SE",
      "latitude": 37.252759,
      "longitude": 127.040566,
      "pcbang_count": 12
    }
  },
  {
    "model": "pc.subway",
    "pk": 453,
    "fields": {
      "name": "수원시청역",
      "line": "B",
      "region": "SE",
      "latitude": 37.261911,
      "longitude": 127.030736,
      "pcbang_count": 12
    }
  },
  {
    "model": "pc.subway",
    "pk": 454,
    "fields": {
      "name": "한티역",
      "line": "B",
      "region": "SE",
      "latitude": 37.496237,
      "longitude": 127.052873,
      "pcbang_count": 23
    }
  },
  {
    "model": "pc.subway",
    "pk": 455,
    "fields": {
      "name": "구룡역",
      "line": "B",
      "region": "SE",
      "latitude": 37.486839,
      "longitude": 127.058856,
      "pcbang_count": 5
    }
  },
  {
    "model": "pc.subway",
    "pk": 456,
    "fields": {
      "name": "개포동역",
      "line": "B",
      "region": "SE",
      "latitude": 37.489116,
      "longitude": 127.06614,
      "pcbang_count": 8
    }
  },