[
  {
    "model": "pc.dong",
    "pk": 1,
    "fields": {
      "name": "화양동",
      "si": 1,
      "doe": 1,
      "latitude": 37.5444163,
      "longitude": 127.0711781
    }
  },
  {
    "model": "pc.dong",
    "pk": 2,
    "fields": {
      "name": "구의동",
      "si": 1,
      "doe": 1,
      "latitude": 37.5429849,
      "longitude": 127.0908086
    }
  },
  {
    "model": "pc.dong",
    "pk": 3,
    "fields": {
      "name": "군자동",
      "si": 1,
      "doe": 1,
      "latitude": 37.551922,
      "longitude": 127.0739582
    }
  },
  {
    "model": "pc.dong",
    "pk": 4,
    "fields": {
      "name": "중곡동",
      "si": 1,
      "doe": 1,
      "latitude": 37.5620908,
      "longitude": 127.0840725
    }
  },
  {
    "model": "pc.dong",
    "pk": 5,
    "fields": {
      "name": "자양동",
      "si": 1,
      "doe": 1,
      "latitude": 37.5352032,
      "longitude": 127.0756161
    }
  },
  {
    "model": "pc.dong",
    "pk": 6,
    "fields": {
      "name": "광장동",
      "si": 1,
      "doe": 1,
      "latitude": 37.5469231,
      "longitude": 127.1056432
    }
  },
  {
    "model": "pc.dong",
    "pk": 7,
    "fields": {
      "name": "능동",
      "si": 1,
      "doe": 1,
      "latitude": 37.5556292,
      "longitude": 127.080304
    }
  },
  {
    "model": "pc.dong",
    "pk": 8,
    "fields": {
      "name": "휘경동",
      "si": 2,
      "doe": 1,
      "latitude": 37.5900529,
      "longitude": 127.0603467
    }
  },
  {
    "model": "pc.dong",
    "pk": 9,
    "fields": {
      "name": "전농동",
      "si": 2,
      "doe": 1,
      "latitude": 37.5798185,
      "longitude": 127.0531198
    }
  },
  {
    "model": "pc.dong",
    "pk": 10,
    "fields": {
      "name": "청량리동",
      "si": 2,
      "doe": 1,
      "latitude": 37.5830428,
      "longitude": 127.0472358
    }
  },
  {
    "model": "pc.dong",
    "pk": 11,
    "fields": {
      "name": "장안동",
      "si": 2,
      "doe": 1,
      "latitude": 37.57246,
      "longitude": 127.0696406
    }
  },
  {
    "model": "pc.dong",
    "pk": 12,
    "fields": {
      "name": "이문동",
      "si": 2,
      "doe": 1,
      "latitude": 37.597211,
      "longitude": 127.0610358
    }
  },
  {
    "model": "pc.dong",
    "pk": 13,
    "fields": {
      "name": "용두동",
      "si": 2,
      "doe": 1,
      "latitude": 37.5760486,
      "longitude": 127.0347159
    }
  },
  {
    "model": "pc.dong",
    "pk": 14,
    "fields": {
      "name": "회기동",
      "si": 2,
      "doe": 1,
      "latitude": 37.5922535,
      "longitude": 127.0521777
    }
  },
  {
    "model": "pc.dong",
    "pk": 15,
    "fields": {
      "name": "답십리동",
      "si": 2,
      "doe": 1,
      "latitude": 37.572359,
      "longitude": 127.0594422
    }
  },
  {
    "model": "pc.dong",
    "pk": 16,
    "fields": {
      "name": "제기동",
      "si": 2,
      "doe": 1,
      "latitude": 37.5858258,
      "longitude": 127.0377708
    }
  },
  {
    "model": "pc.dong",
    "pk": 17,
    "fields": {
      "name": "신설동",
      "si": 2,
      "doe": 1,
      "latitude": 37.5751241,
      "longitude": 127.0249919
    }
  },
  {
    "model": "pc.dong",
    "pk": 18,
    "fields": {
      "name": "망우동",
      "si": 3,
      "doe": 1,
      "latitude": 37.5984751,
      "longitude": 127.0991925
    }
  },
  {
    "model": "pc.dong",
    "pk": 19,
    "fields": {
      "name": "신내동",
      "si": 3,
      "doe": 1,
      "latitude": 37.6089076,
      "longitude": 127.0961967
    }
  },
  {
    "model": "pc.dong",
    "pk": 20,
    "fields": {
      "name": "묵동",
      "si": 3,
      "doe": 1,
      "latitude": 37.6119621,
      "longitude": 127.0775844
    }
  },
  {
    "model": "pc.dong",
    "pk": 21,
    "fields": {
      "name": "상봉동",
      "si": 3,
      "doe": 1,
      "latitude": 37.5954367,
      "longitude": 127.0820772
    }
  },
  {
    "model": "pc.dong",
    "pk": 22,
    "fields": {
      "name": "면목동",
      "si": 3,
      "doe": 1,
      "latitude": 37.5844912,
      "longitude": 127.0873535
    }
  },
  {
    "model": "pc.dong",
    "pk": 23,
    "fields": {
      "name": "중화동",
      "si": 3,
      "doe": 1,
      "latitude": 37.6010175,
      "longitude": 127.0772283
    }
  },
  {
    "model": "pc.dong",
    "pk": 24,
    "fields": {
      "name": "청파동2가",
      "si": 4,
      "doe": 1,
      "latitude": 37.5453627,
      "longitude": 126.9676367
    }
  },
  {
    "model": "pc.dong",
    "pk": 25,
    "fields": {
      "name": "용문동",
      "si": 4,
      "doe": 1,
      "latitude": 37.5381644,
      "longitude": 126.9587837
    }
  },
  {
    "model": "pc.dong",
    "pk": 26,
    "fields": {
      "name": "갈월동",
      "si": 4,
      "doe": 1,
      "latitude": 37.5429758,
      "longitude": 126.9718016
    }
  },
  {
    "model": "pc.dong",
    "pk": 27,
    "fields": {
      "name": "보광동",
      "si": 4,
      "doe": 1,
      "latitude": 37.5284575,
      "longitude": 126.9987993
    }
  },
  {
    "model": "pc.dong",
    "pk": 28,
    "fields": {
      "name": "한강로2가",
      "si": 4,
      "doe": 1,
      "latitude": 37.5304527,
      "longitude": 126.9673477
    }
  },
  {
    "model": "pc.dong",
    "pk": 29,
    "fields": {
      "name": "동자동",
      "si": 4,
      "doe": 1,
      "latitude": 37.5503592,
      "longitude": 126.9747159
    }
  },
  {
    "model": "pc.dong",
    "pk": 30,
    "fields": {
      "name": "이촌동",
      "si": 4,
      "doe": 1,
      "latitude": 37.5213805,
      "longitude": 126.9714006
    }
  },
  {
    "model": "pc.dong",
    "pk": 31,
    "fields": {
      "name": "한남동",
      "si": 4,
      "doe": 1,
      "latitude": 37.5328831,
      "longitude": 127.005143
    }
  },
  {
    "model": "pc.dong",
    "pk": 32,
    "fields": {
      "name": "이태원동",
      "si": 4,
      "doe": 1,
      "latitude": 37.5365187,
      "longitude": 126.9914319
    }
  },
  {
    "model": "pc.dong",
    "pk": 33,
    "fields": {
      "name": "후암동",
      "si": 4,
      "doe": 1,
      "latitude": 37.5496503,
      "longitude": 126.9784398
    }
  },
  {
    "model": "pc.dong",
    "pk": 34,
    "fields": {
      "name": "원효로2가",
      "si": 4,
      "doe": 1,
      "latitude": 37.5354561,
      "longitude": 126.961446
    }
  },
  {
    "model": "pc.dong",
    "pk": 35,
    "fields": {
      "name": "용산동2가",
      "si": 4,
      "doe": 1,
      "latitude": 37.5442489,
      "longitude": 126.9863717
    }
  },
  {
    "model": "pc.dong",
    "pk": 36,
    "fields": {
      "name": "원효로3가",
      "si": 4,
      "doe": 1,
      "latitude": 37.5349649,
      "longitude": 126.9599376
    }
  },
  {
    "model": "pc.dong",
    "pk": 37,
    "fields": {
      "name": "한강로3가",
      "si": 4,
      "doe": 1,
      "latitude": 37.5281924,
      "longitude": 126.9639916
    }
  },
  {
    "model": "pc.dong",
    "pk": 38,
    "fields": {
      "name": "원효로1가",
      "si": 4,
      "doe": 1,
      "latitude": 37.5382931,
      "longitude": 126.9673316
    }
  },
  {
    "model": "pc.dong",
    "pk": 39,
    "fields": {
      "name": "남영동",
      "si": 4,
      "doe": 1,
      "latitude": 37.5437065,
      "longitude": 126.9726913
    }
  },
  {
    "model": "pc.dong",
    "pk": 40,
    "fields": {
      "name": "청파동1가",
      "si": 4,
      "doe": 1,
      "latitude": 37.5493319,
      "longitude": 126.969698
    }
  },
  {
    "model": "pc.dong",
    "pk": 41,
    "fields": {
      "name": "금호동4가",
      "si": 5,
      "doe": 1,
      "latitude": 37.5480995,
      "longitude": 127.0200654
    }
  },
  {
    "model": "pc.dong",
    "pk": 42,
    "fields": {
      "name": "성수동1가",
      "si": 5,
      "doe": 1,
      "latitude": 37.5468352,
      "longitude": 127.0480313
    }
  },
  {
    "model": "pc.dong",
    "pk": 43,
    "fields": {
      "name": "용답동",
      "si": 5,
      "doe": 1,
      "latitude": 37.5650888,
      "longitude": 127.0532181
    }
  },
  {
    "model": "pc.dong",
    "pk": 44,
    "fields": {
      "name": "도선동",
      "si": 5,
      "doe": 1,
      "latitude": 37.5648293,
      "longitude": 127.0342782
    }
  },
  {
    "model": "pc.dong",
    "pk": 45,
    "fields": {
      "name": "행당동",
      "si": 5,
      "doe": 1,
      "latitude": 37.5598377,
      "longitude": 127.0386528
    }
  },
  {
    "model": "pc.dong",
    "pk": 46,
    "fields": {
      "name": "하왕십리동",
      "si": 5,
      "doe": 1,
      "latitude": 37.5626582,
      "longitude": 127.0326808
    }
  },
  {
    "model": "pc.dong",
    "pk": 47,
    "fields": {
      "name": "금호동3가",
      "si": 5,
      "doe": 1,
      "latitude": 37.5484922,
      "longitude": 127.0180451
    }
  },
  {
    "model": "pc.dong",
    "pk": 48,
    "fields": {
      "name": "마장동",
      "si": 5,
      "doe": 1,
      "latitude": 37.5654939,
      "longitude": 127.0413732
    }
  },
  {
    "model": "pc.dong",
    "pk": 49,
    "fields": {
      "name": "성수동2가",
      "si": 5,
      "doe": 1,
      "latitude": 37.5408095,
      "longitude": 127.0552771
    }
  },
  {
    "model": "pc.dong",
    "pk": 50,
    "fields": {
      "name": "사근동",
      "si": 5,
      "doe": 1,
      "latitude": 37.5601332,
      "longitude": 127.0468476
    }
  },
  {
    "model": "pc.dong",
    "pk": 51,
    "fields": {
      "name": "금호동1가",
      "si": 5,
      "doe": 1,
      "latitude": 37.5549911,
      "longitude": 127.0226698
    }
  },
  {
    "model": "pc.dong",
    "pk": 52,
    "fields": {
      "name": "수유동",
      "si": 6,
      "doe": 1,
      "latitude": 37.6386856,
      "longitude": 127.0210825
    }
  },
  {
    "model": "pc.dong",
    "pk": 53,
    "fields": {
      "name": "번동",
      "si": 6,
      "doe": 1,
      "latitude": 37.6334577,
      "longitude": 127.0355822
    }
  },
  {
    "model": "pc.dong",
    "pk": 54,
    "fields": {
      "name": "미아동",
      "si": 6,
      "doe": 1,
      "latitude": 37.6211794,
      "longitude": 127.0239106
    }
  },
  {
    "model": "pc.dong",
    "pk": 55,
    "fields": {
      "name": "우이동",
      "si": 6,
      "doe": 1,
      "latitude": 37.6584624,
      "longitude": 127.0135456
    }
  },
  {
    "model": "pc.dong",
    "pk": 56,
    "fields": {
      "name": "창동",
      "si": 7,
      "doe": 1,
      "latitude": 37.6464273,
      "longitude": 127.0408875
    }
  },
  {
    "model": "pc.dong",
    "pk": 57,
    "fields": {
      "name": "도봉동",
      "si": 7,
      "doe": 1,
      "latitude": 37.6784148,
      "longitude": 127.0452423
    }
  },
  {
    "model": "pc.dong",
    "pk": 58,
    "fields": {
      "name": "쌍문동",
      "si": 7,
      "doe": 1,
      "latitude": 37.6567106,
      "longitude": 127.0303088
    }
  },
  {
    "model": "pc.dong",
    "pk": 59,
    "fields": {
      "name": "방학동",
      "si": 7,
      "doe": 1,
      "latitude": 37.6655481,
      "longitude": 127.0391969
    }
  },
  {
    "model": "pc.dong",
    "pk": 60,
    "fields": {
      "name": "상계동",
      "si": 8,
      "doe": 1,
      "latitude": 37.6632641,
      "longitude": 127.0653947
    }
  },
  {
    "model": "pc.dong",
    "pk": 61,
    "fields": {
      "name": "공릉동",
      "si": 8,
      "doe": 1,
      "latitude": 37.6251401,
      "longitude": 127.077799
    }
  },
  {
    "model": "pc.dong",
    "pk": 62,
    "fields": {
      "name": "월계동",
      "si": 8,
      "doe": 1,
      "latitude": 37.6217228,
      "longitude": 127.0613895
    }
  },
  {
    "model": "pc.dong",
    "pk": 63,
    "fields": {
      "name": "중계동",
      "si": 8,
      "doe": 1,
      "latitude": 37.6520936,
      "longitude": 127.0756582
    }
  },
  {
    "model": "pc.dong",
    "pk": 64,
    "fields": {
      "name": "하계동",
      "si": 8,
      "doe": 1,
      "latitude": 37.6348422,
      "longitude": 127.0672413
    }
  },
  {
    "model": "pc.dong",
    "pk": 65,
    "fields": {
      "name": "불광동",
      "si": 9,
      "doe": 1,
      "latitude": 37.6193449,
      "longitude": 126.9274917
    }
  },
  {
    "model": "pc.dong",
    "pk": 66,
    "fields": {
      "name": "갈현동",
      "si": 9,
      "doe": 1,
      "latitude": 37.6183838,
      "longitude": 126.9171536
    }
  },
  {
    "model": "pc.dong",
    "pk": 67,
    "fields": {
      "name": "응암동",
      "si": 9,
      "doe": 1,
      "latitude": 37.5942766,
      "longitude": 126.9201404
    }
  },
  {
    "model": "pc.dong",
    "pk": 68,
    "fields": {
      "name": "역촌동",
      "si": 9,
      "doe": 1,
      "latitude": 37.6048304,
      "longitude": 126.9157537
    }
  },
  {
    "model": "pc.dong",
    "pk": 69,
    "fields": {
      "name": "녹번동",
      "si": 9,
      "doe": 1,
      "latitude": 37.6057291,
      "longitude": 126.9291443
    }
  },
  {
    "model": "pc.dong",
    "pk": 70,
    "fields": {
      "name": "수색동",
      "si": 9,
      "doe": 1,
      "latitude": 37.5828454,
      "longitude": 126.8947452
    }
  },
  {
    "model": "pc.dong",
    "pk": 71,
    "fields": {
      "name": "진관동",
      "si": 9,
      "doe": 1,
      "latitude": 37.6371357,
      "longitude": 126.9192501
    }
  },
  {
    "model": "pc.dong",
    "pk": 72,
    "fields": {
      "name": "대조동",
      "si": 9,
      "doe": 1,
      "latitude": 37.6132715,
      "longitude": 126.9247391
    }
  },
  {
    "model": "pc.dong",
    "pk": 73,
    "fields": {
      "name": "증산동",
      "si": 9,
      "doe": 1,
      "latitude": 37.5864953,
      "longitude": 126.9106798
    }
  },
  {
    "model": "pc.dong",
    "pk": 74,
    "fields": {
      "name": "신사동",
      "si": 9,
      "doe": 1,
      "latitude": 37.5987804,
      "longitude": 126.9119434
    }
  },
  {
    "model": "pc.dong",
    "pk": 75,
    "fields": {
      "name": "홍은동",
      "si": 10,
      "doe": 1,
      "latitude": 37.5876846,
      "longitude": 126.9363666
    }
  },
  {
    "model": "pc.dong",
    "pk": 76,
    "fields": {
      "name": "북가좌동",
      "si": 10,
      "doe": 1,
      "latitude": 37.5803058,
      "longitude": 126.9132868
    }
  },
  {
    "model": "pc.dong",
    "pk": 77,
    "fields": {
      "name": "창천동",
      "si": 10,
      "doe": 1,
      "latitude": 37.5579105,
      "longitude": 126.9364943
    }
  },
  {
    "model": "pc.dong",
    "pk": 78,
    "fields": {
      "name": "연희동",
      "si": 10,
      "doe": 1,
      "latitude": 37.5662971,
      "longitude": 126.9313569
    }
  },
  {
    "model": "pc.dong",
    "pk": 79,
    "fields": {
      "name": "홍제동",
      "si": 10,
      "doe": 1,
      "latitude": 37.5892634,
      "longitude": 126.9485746
    }
  },
  {
    "model": "pc.dong",
    "pk": 80,
    "fields": {
      "name": "충정로3가",
      "si": 10,
      "doe": 1,
      "latitude": 37.5635168,
      "longitude": 126.9609666
    }
  },
  {
    "model": "pc.dong",
    "pk": 81,
    "fields": {
      "name": "북아현동",
      "si": 10,
      "doe": 1,
      "latitude": 37.5632592,
      "longitude": 126.9551007
    }
  },
  {
    "model": "pc.dong",
    "pk": 82,
    "fields": {
      "name": "영천동",
      "si": 10,
      "doe": 1,
      "latitude": 37.5705763,
      "longitude": 126.9615861
    }
  },
  {
    "model": "pc.dong",
    "pk": 83,
    "fields": {
      "name": "남가좌동",
      "si": 10,
      "doe": 1,
      "latitude": 37.5792901,
      "longitude": 126.9235473
    }
  },
  {
    "model": "pc.dong",
    "pk": 84,
    "fields": {
      "name": "대현동",
      "si": 10,
      "doe": 1,
      "latitude": 37.5570891,
      "longitude": 126.944479
    }
  },
  {
    "model": "pc.dong",
    "pk": 85,
    "fields": {
      "name": "성산동",
      "si": 11,
      "doe": 1,
      "latitude": 37.5637594,
      "longitude": 126.9103363
    }
  },
  {
    "model": "pc.dong",
    "pk": 86,
    "fields": {
      "name": "합정동",
      "si": 11,
      "doe": 1,
      "latitude": 37.5490088,
      "longitude": 126.9141021
    }
  },
  {
    "model": "pc.dong",
    "pk": 87,
    "fields": {
      "name": "신수동",
      "si": 11,
      "doe": 1,
      "latitude": 37.5504442,
      "longitude": 126.9379555
    }
  },
  {
    "model": "pc.dong",
    "pk": 88,
    "fields": {
      "name": "상암동",
      "si": 11,
      "doe": 1,
      "latitude": 37.5761245,
      "longitude": 126.8958664
    }
  },
  {
    "model": "pc.dong",
    "pk": 89,
    "fields": {
      "name": "동교동",
      "si": 11,
      "doe": 1,
      "latitude": 37.5566522,
      "longitude": 126.9229553
    }
  },
  {
    "model": "pc.dong",
    "pk": 90,
    "fields": {
      "name": "공덕동",
      "si": 11,
      "doe": 1,
      "latitude": 37.54862,
      "longitude": 126.9561094
    }
  },
  {
    "model": "pc.dong",
    "pk": 91,
    "fields": {
      "name": "서교동",
      "si": 11,
      "doe": 1,
      "latitude": 37.5543346,
      "longitude": 126.9200462
    }
  },
  {
    "model": "pc.dong",
    "pk": 92,
    "fields": {
      "name": "연남동",
      "si": 11,
      "doe": 1,
      "latitude": 37.5624105,
      "longitude": 126.9272569
    }
  },
  {
    "model": "pc.dong",
    "pk": 93,
    "fields": {
      "name": "대흥동",
      "si": 11,
      "doe": 1,
      "latitude": 37.549537,
      "longitude": 126.9436111
    }
  },
  {
    "model": "pc.dong",
    "pk": 94,
    "fields": {
      "name": "노고산동",
      "si": 11,
      "doe": 1,
      "latitude": 37.5552104,
      "longitude": 126.9339407
    }
  },
  {
    "model": "pc.dong",
    "pk": 95,
    "fields": {
      "name": "용강동",
      "si": 11,
      "doe": 1,
      "latitude": 37.5415354,
      "longitude": 126.9414729
    }
  },
  {
    "model": "pc.dong",
    "pk": 96,
    "fields": {
      "name": "상수동",
      "si": 11,
      "doe": 1,
      "latitude": 37.5476715,
      "longitude": 126.9221235
    }
  },
  {
    "model": "pc.dong",
    "pk": 97,
    "fields": {
      "name": "아현동",
      "si": 11,
      "doe": 1,
      "latitude": 37.5515611,
      "longitude": 126.9557083
    }
  },
  {
    "model": "pc.dong",
    "pk": 98,
    "fields": {
      "name": "망원동",
      "si": 11,
      "doe": 1,
      "latitude": 37.5570066,
      "longitude": 126.9050023
    }
  },
  {
    "model": "pc.dong",
    "pk": 99,
    "fields": {
      "name": "도화동",
      "si": 11,
      "doe": 1,
      "latitude": 37.5403733,
      "longitude": 126.9478248
    }
  },
  {
    "model": "pc.dong",
    "pk": 100,
    "fields": {
      "name": "당인동",
      "si": 11,
      "doe": 1,
      "latitude": 37.5475053,
      "longitude": 126.919946
    }
  },
  {
    "model": "pc.dong",
    "pk": 101,
    "fields": {
      "name": "창전동",
      "si": 11,
      "doe": 1,
      "latitude": 37.5510667,
      "longitude": 126.9303838
    }
  },
  {
    "model": "pc.dong",
    "pk": 102,
    "fields": {
      "name": "신공덕동",
      "si": 11,
      "doe": 1,
      "latitude": 37.543552,
      "longitude": 126.9528551
    }
  },
  {
    "model": "pc.dong",
    "pk": 103,
    "fields": {
      "name": "목동",
      "si": 12,
      "doe": 1,
      "latitude": 37.5365709,
      "longitude": 126.8708799
    }
  },
  {
    "model": "pc.dong",
    "pk": 104,
    "fields": {
      "name": "신월동",
      "si": 12,
      "doe": 1,
      "latitude": 37.5273428,
      "longitude": 126.8360003
    }
  },
  {
    "model": "pc.dong",
    "pk": 105,
    "fields": {
      "name": "신정동",
      "si": 12,
      "doe": 1,
      "latitude": 37.5187953,
      "longitude": 126.8590715
    }
  },
  {
    "model": "pc.dong",
    "pk": 106,
    "fields": {
      "name": "화곡동",
      "si": 13,
      "doe": 1,
      "latitude": 37.5400325,
      "longitude": 126.8468037
    }
  },
  {
    "model": "pc.dong",
    "pk": 107,
    "fields": {
      "name": "내발산동",
      "si": 13,
      "doe": 1,
      "latitude": 37.5534203,
      "longitude": 126.8356932
    }
  },
  {
    "model": "pc.dong",
    "pk": 108,
    "fields": {
      "name": "가양동",
      "si": 13,
      "doe": 1,
      "latitude": 37.5631969,
      "longitude": 126.8525572
    }
  },
  {
    "model": "pc.dong",
    "pk": 109,
    "fields": {
      "name": "등촌동",
      "si": 13,
      "doe": 1,
      "latitude": 37.5545342,
      "longitude": 126.8527455
    }
  },
  {
    "model": "pc.dong",
    "pk": 110,
    "fields": {
      "name": "방화동",
      "si": 13,
      "doe": 1,
      "latitude": 37.5705734,
      "longitude": 126.8137443
    }
  },
  {
    "model": "pc.dong",
    "pk": 111,
    "fields": {
      "name": "염창동",
      "si": 13,
      "doe": 1,
      "latitude": 37.5515647,
      "longitude": 126.871025
    }
  },
  {
    "model": "pc.dong",
    "pk": 112,
    "fields": {
      "name": "공항동",
      "si": 13,
      "doe": 1,
      "latitude": 37.558442,
      "longitude": 126.8112901
    }
  },
  {
    "model": "pc.dong",
    "pk": 113,
    "fields": {
      "name": "신도림동",
      "si": 14,
      "doe": 1,
      "latitude": 37.5089434,
      "longitude": 126.8844267
    }
  },
  {
    "model": "pc.dong",
    "pk": 114,
    "fields": {
      "name": "고척동",
      "si": 14,
      "doe": 1,
      "latitude": 37.5016405,
      "longitude": 126.8618603
    }
  },
  {
    "model": "pc.dong",
    "pk": 115,
    "fields": {
      "name": "개봉동",
      "si": 14,
      "doe": 1,
      "latitude": 37.4932022,
      "longitude": 126.8535426
    }
  },
  {
    "model": "pc.dong",
    "pk": 116,
    "fields": {
      "name": "구로동",
      "si": 14,
      "doe": 1,
      "latitude": 37.4941191,
      "longitude": 126.8870623
    }
  },
  {
    "model": "pc.dong",
    "pk": 117,
    "fields": {
      "name": "오류동",
      "si": 14,
      "doe": 1,
      "latitude": 37.4940423,
      "longitude": 126.8431581
    }
  },
  {
    "model": "pc.dong",
    "pk": 118,
    "fields": {
      "name": "가리봉동",
      "si": 14,
      "doe": 1,
      "latitude": 37.4823634,
      "longitude": 126.8883336
    }
  },
  {
    "model": "pc.dong",
    "pk": 119,
    "fields": {
      "name": "온수동",
      "si": 14,
      "doe": 1,
      "latitude": 37.4917487,
      "longitude": 126.823314
    }
  },
  {
    "model": "pc.dong",
    "pk": 120,
    "fields": {
      "name": "궁동",
      "si": 14,
      "doe": 1,
      "latitude": 37.4945337,
      "longitude": 126.8328702
    }
  },
  {
    "model": "pc.dong",
    "pk": 121,
    "fields": {
      "name": "시흥동",
      "si": 15,
      "doe": 1,
      "latitude": 37.4515087,
      "longitude": 126.9053525
    }
  },
  {
    "model": "pc.dong",
    "pk": 122,
    "fields": {
      "name": "가산동",
      "si": 15,
      "doe": 1,
      "latitude": 37.4762784,
      "longitude": 126.8901524
    }
  },
  {
    "model": "pc.dong",
    "pk": 123,
    "fields": {
      "name": "독산동",
      "si": 15,
      "doe": 1,
      "latitude": 37.4693598,
      "longitude": 126.9015495
    }
  },
  {
    "model": "pc.dong",
    "pk": 124,
    "fields": {
      "name": "신길동",
      "si": 16,
      "doe": 1,
      "latitude": 37.5060951,
      "longitude": 126.9156003
    }
  },
  {
    "model": "pc.dong",
    "pk": 125,
    "fields": {
      "name": "영등포동8가",
      "si": 16,
      "doe": 1,
      "latitude": 37.5295953,
      "longitude": 126.9049055
    }
  },
  {
    "model": "pc.dong",
    "pk": 126,
    "fields": {
      "name": "양평동4가",
      "si": 16,
      "doe": 1,
      "latitude": 37.5368562,
      "longitude": 126.8954154
    }
  },
  {
    "model": "pc.dong",
    "pk": 127,
    "fields": {
      "name": "당산동1가",
      "si": 16,
      "doe": 1,
      "latitude": 37.5236788,
      "longitude": 126.8972413
    }
  },
  {
    "model": "pc.dong",
    "pk": 128,
    "fields": {
      "name": "여의도동",
      "si": 16,
      "doe": 1,
      "latitude": 37.5193084,
      "longitude": 126.9310886
    }
  },
  {
    "model": "pc.dong",
    "pk": 129,
    "fields": {
      "name": "대림동",
      "si": 16,
      "doe": 1,
      "latitude": 37.4948417,
      "longitude": 126.9006607
    }
  },
  {
    "model": "pc.dong",
    "pk": 130,
    "fields": {
      "name": "도림동",
      "si": 16,
      "doe": 1,
      "latitude": 37.5075738,
      "longitude": 126.8990129
    }
  },
  {
    "model": "pc.dong",
    "pk": 131,
    "fields": {
      "name": "영등포동3가",
      "si": 16,
      "doe": 1,
      "latitude": 37.5182888,
      "longitude": 126.9077367
    }
  },
  {
    "model": "pc.dong",
    "pk": 132,
    "fields": {
      "name": "문래동4가",
      "si": 16,
      "doe": 1,
      "latitude": 37.5167427,
      "longitude": 126.8888939
    }
  },
  {
    "model": "pc.dong",
    "pk": 133,
    "fields": {
      "name": "영등포동",
      "si": 16,
      "doe": 1,
      "latitude": 37.5143215,
      "longitude": 126.9070392
    }
  },
  {
    "model": "pc.dong",
    "pk": 134,
    "fields": {
      "name": "영등포동7가",
      "si": 16,
      "doe": 1,
      "latitude": 37.5227983,
      "longitude": 126.909209
    }
  },
  {
    "model": "pc.dong",
    "pk": 135,
    "fields": {
      "name": "문래동3가",
      "si": 16,
      "doe": 1,
      "latitude": 37.5173372,
      "longitude": 126.8893036
    }
  },
  {
    "model": "pc.dong",
    "pk": 136,
    "fields": {
      "name": "양평동3가",
      "si": 16,
      "doe": 1,
      "latitude": 37.5261688,
      "longitude": 126.886109
    }
  },
  {
    "model": "pc.dong",
    "pk": 137,
    "fields": {
      "name": "당산동3가",
      "si": 16,
      "doe": 1,
      "latitude": 37.5263928,
      "longitude": 126.8967904
    }
  },
  {
    "model": "pc.dong",
    "pk": 138,
    "fields": {
      "name": "당산동4가",
      "si": 16,
      "doe": 1,
      "latitude": 37.5279512,
      "longitude": 126.9034101
    }
  },
  {
    "model": "pc.dong",
    "pk": 139,
    "fields": {
      "name": "당산동6가",
      "si": 16,
      "doe": 1,
      "latitude": 37.5348172,
      "longitude": 126.9018672
    }
  },
  {
    "model": "pc.dong",
    "pk": 140,
    "fields": {
      "name": "당산동5가",
      "si": 16,
      "doe": 1,
      "latitude": 37.5343184,
      "longitude": 126.9004198
    }
  },
  {
    "model": "pc.dong",
    "pk": 141,
    "fields": {
      "name": "양평동1가",
      "si": 16,
      "doe": 1,
      "latitude": 37.5228277,
      "longitude": 126.8881051
    }
  },
  {
    "model": "pc.dong",
    "pk": 142,
    "fields": {
      "name": "사당동",
      "si": 17,
      "doe": 1,
      "latitude": 37.4842643,
      "longitude": 126.9775963
    }
  },
  {
    "model": "pc.dong",
    "pk": 143,
    "fields": {
      "name": "상도동",
      "si": 17,
      "doe": 1,
      "latitude": 37.4995009,
      "longitude": 126.9450448
    }
  },
  {
    "model": "pc.dong",
    "pk": 144,
    "fields": {
      "name": "노량진동",
      "si": 17,
      "doe": 1,
      "latitude": 37.5121041,
      "longitude": 126.94338
    }
  },
  {
    "model": "pc.dong",
    "pk": 145,
    "fields": {
      "name": "신대방동",
      "si": 17,
      "doe": 1,
      "latitude": 37.4938598,
      "longitude": 126.9197966
    }
  },
  {
    "model": "pc.dong",
    "pk": 146,
    "fields": {
      "name": "대방동",
      "si": 17,
      "doe": 1,
      "latitude": 37.5025099,
      "longitude": 126.928564
    }
  },
  {
    "model": "pc.dong",
    "pk": 147,
    "fields": {
      "name": "흑석동",
      "si": 17,
      "doe": 1,
      "latitude": 37.5074889,
      "longitude": 126.9613337
    }
  },
  {
    "model": "pc.dong",
    "pk": 148,
    "fields": {
      "name": "상도1동",
      "si": 17,
      "doe": 1,
      "latitude": 37.5024962,
      "longitude": 126.9483685
    }
  },
  {
    "model": "pc.dong",
    "pk": 149,
    "fields": {
      "name": "본동",
      "si": 17,
      "doe": 1,
      "latitude": 37.5127148,
      "longitude": 126.952048
    }
  },
  {
    "model": "pc.dong",
    "pk": 150,
    "fields": {
      "name": "신림동",
      "si": 18,
      "doe": 1,
      "latitude": 37.4761497,
      "longitude": 126.9292898
    }
  },
  {
    "model": "pc.dong",
    "pk": 151,
    "fields": {
      "name": "봉천동",
      "si": 18,
      "doe": 1,
      "latitude": 37.4811307,
      "longitude": 126.9521739
    }
  },
  {
    "model": "pc.dong",
    "pk": 152,
    "fields": {
      "name": "남현동",
      "si": 18,
      "doe": 1,
      "latitude": 37.4752362,
      "longitude": 126.9795711
    }
  },
  {
    "model": "pc.dong",
    "pk": 153,
    "fields": {
      "name": "방배동",
      "si": 19,
      "doe": 1,
      "latitude": 37.4853961,
      "longitude": 126.9899695
    }
  },
  {
    "model": "pc.dong",
    "pk": 154,
    "fields": {
      "name": "반포동",
      "si": 19,
      "doe": 1,
      "latitude": 37.504525,
      "longitude": 127.0120544
    }
  },
  {
    "model": "pc.dong",
    "pk": 155,
    "fields": {
      "name": "양재동",
      "si": 19,
      "doe": 1,
      "latitude": 37.4770274,
      "longitude": 127.0410383
    }
  },
  {
    "model": "pc.dong",
    "pk": 156,
    "fields": {
      "name": "서초동",
      "si": 19,
      "doe": 1,
      "latitude": 37.4908861,
      "longitude": 127.0186584
    }
  },
  {
    "model": "pc.dong",
    "pk": 157,
    "fields": {
      "name": "우면동",
      "si": 19,
      "doe": 1,
      "latitude": 37.4696404,
      "longitude": 127.0259374
    }
  },
  {
    "model": "pc.dong",
    "pk": 158,
    "fields": {
      "name": "잠원동",
      "si": 19,
      "doe": 1,
      "latitude": 37.5108395,
      "longitude": 127.0109805
    }
  },
  {
    "model": "pc.dong",
    "pk": 159,
    "fields": {
      "name": "역삼동",
      "si": 20,
      "doe": 1,
      "latitude": 37.5000401,
      "longitude": 127.0383961
    }
  },
  {
    "model": "pc.dong",
    "pk": 160,
    "fields": {
      "name": "신사동",
      "si": 20,
      "doe": 1,
      "latitude": 37.5234905,
      "longitude": 127.0284492
    }
  },
  {
    "model": "pc.dong",
    "pk": 161,
    "fields": {
      "name": "일원동",
      "si": 20,
      "doe": 1,
      "latitude": 37.4892819,
      "longitude": 127.083919
    }
  },
  {
    "model": "pc.dong",
    "pk": 162,
    "fields": {
      "name": "도곡동",
      "si": 20,
      "doe": 1,
      "latitude": 37.485487,
      "longitude": 127.0414634
    }
  },
  {
    "model": "pc.dong",
    "pk": 163,
    "fields": {
      "name": "삼성동",
      "si": 20,
      "doe": 1,
      "latitude": 37.512298,
      "longitude": 127.0528054
    }
  },
  {
    "model": "pc.dong",
    "pk": 164,
    "fields": {
      "name": "대치동",
      "si": 20,
      "doe": 1,
      "latitude": 37.4996481,
      "longitude": 127.0591611
    }
  },
  {
    "model": "pc.dong",
    "pk": 165,
    "fields": {
      "name": "개포동",
      "si": 20,
      "doe": 1,
      "latitude": 37.4810626,
      "longitude": 127.0535091
    }
  },
  {
    "model": "pc.dong",
    "pk": 166,
    "fields": {
      "name": "논현동",
      "si": 20,
      "doe": 1,
      "latitude": 37.5138048,
      "longitude": 127.0326158
    }
  },
  {
    "model": "pc.dong",
    "pk": 167,
    "fields": {
      "name": "세곡동",
      "si": 20,
      "doe": 1,
      "latitude": 37.4657523,
      "longitude": 127.1012291
    }
  },
  {
    "model": "pc.dong",
    "pk": 168,
    "fields": {
      "name": "청담동",
      "si": 20,
      "doe": 1,
      "latitude": 37.5219483,
      "longitude": 127.0525789
    }
  },
  {
    "model": "pc.dong",
    "pk": 169,
    "fields": {
      "name": "수서동",
      "si": 20,
      "doe": 1,
      "latitude": 37.4869752,
      "longitude": 127.1034384
    }
  },
  {
    "model": "pc.dong",
    "pk": 170,
    "fields": {
      "name": "잠실동",
      "si": 21,
      "doe": 1,
      "latitude": 37.5092073,
      "longitude": 127.0835108
    }
  },
  {
    "model": "pc.dong",
    "pk": 171,
    "fields": {
      "name": "방이동",
      "si": 21,
      "doe": 1,
      "latitude": 37.5116645,
      "longitude": 127.1176485
    }
  },
  {
    "model": "pc.dong",
    "pk": 172,
    "fields": {
      "name": "석촌동",
      "si": 21,
      "doe": 1,
      "latitude": 37.5031287,
      "longitude": 127.101988
    }
  },
  {
    "model": "pc.dong",
    "pk": 173,
    "fields": {
      "name": "삼전동",
      "si": 21,
      "doe": 1,
      "latitude": 37.5042662,
      "longitude": 127.0924083
    }
  },
  {
    "model": "pc.dong",
    "pk": 174,
    "fields": {
      "name": "풍납동",
      "si": 21,
      "doe": 1,
      "latitude": 37.5341084,
      "longitude": 127.1175477
    }
  },
  {
    "model": "pc.dong",
    "pk": 175,
    "fields": {
      "name": "가락동",
      "si": 21,
      "doe": 1,
      "latitude": 37.4952577,
      "longitude": 127.1282136
    }
  },
  {
    "model": "pc.dong",
    "pk": 176,
    "fields": {
      "name": "신천동",
      "si": 21,
      "doe": 1,
      "latitude": 37.5173481,
      "longitude": 127.1069104
    }
  },
  {
    "model": "pc.dong",
    "pk": 177,
    "fields": {
      "name": "거여동",
      "si": 21,
      "doe": 1,
      "latitude": 37.495131,
      "longitude": 127.145063
    }
  },
  {
    "model": "pc.dong",
    "pk": 178,
    "fields": {
      "name": "오금동",
      "si": 21,
      "doe": 1,
      "latitude": 37.5074363,
      "longitude": 127.1299956
    }
  },
  {
    "model": "pc.dong",
    "pk": 179,
    "fields": {
      "name": "문정동",
      "si": 21,
      "doe": 1,
      "latitude": 37.4887723,
      "longitude": 127.1234483
    }
  },
  {
    "model": "pc.dong",
    "pk": 180,
    "fields": {
      "name": "마천동",
      "si": 21,
      "doe": 1,
      "latitude": 37.4976603,
      "longitude": 127.1494977
    }
  },
  {
    "model": "pc.dong",
    "pk": 181,
    "fields": {
      "name": "송파동",
      "si": 21,
      "doe": 1,
      "latitude": 37.5070335,
      "longitude": 127.1124098
    }
  },
  {
    "model": "pc.dong",
    "pk": 182,
    "fields": {
      "name": "장지동",
      "si": 21,
      "doe": 1,
      "latitude": 37.481686,
      "longitude": 127.1427824
    }
  },
  {
    "model": "pc.dong",
    "pk": 183,
    "fields": {
      "name": "길동",
      "si": 22,
      "doe": 1,
      "latitude": 37.5375289,
      "longitude": 127.141646
    }
  },
  {
    "model": "pc.dong",
    "pk": 184,
    "fields": {
      "name": "천호동",
      "si": 22,
      "doe": 1,
      "latitude": 37.5432258,
      "longitude": 127.1313822
    }
  },
  {
    "model": "pc.dong",
    "pk": 185,
    "fields": {
      "name": "고덕동",
      "si": 22,
      "doe": 1,
      "latitude": 37.5593189,
      "longitude": 127.1648488
    }
  },
  {
    "model": "pc.dong",
    "pk": 186,
    "fields": {
      "name": "암사동",
      "si": 22,
      "doe": 1,
      "latitude": 37.5514649,
      "longitude": 127.1311494
    }
  },
  {
    "model": "pc.dong",
    "pk": 187,
    "fields": {
      "name": "성내동",
      "si": 22,
      "doe": 1,
      "latitude": 37.530309,
      "longitude": 127.1319891
    }
  },
  {
    "model": "pc.dong",
    "pk": 188,
    "fields": {
      "name": "강일동",
      "si": 22,
      "doe": 1,
      "latitude": 37.5654931,
      "longitude": 127.173435
    }
  },
  {
    "model": "pc.dong",
    "pk": 189,
    "fields": {
      "name": "명일동",
      "si": 22,
      "doe": 1,
      "latitude": 37.5513933,
      "longitude": 127.152298
    }
  },
  {
    "model": "pc.dong",
    "pk": 190,
    "fields": {
      "name": "둔촌동",
      "si": 22,
      "doe": 1,
      "latitude": 37.5313266,
      "longitude": 127.1401446
    }
  },
  {
    "model": "pc.dong",
    "pk": 191,
    "fields": {
      "name": "상일동",
      "si": 22,
      "doe": 1,
      "latitude": 37.5500523,
      "longitude": 127.1727278
    }
  },
  {
    "model": "pc.dong",
    "pk": 192,
    "fields": {
      "name": "명륜1가",
      "si": 23,
      "doe": 1,
      "latitude": 37.5871319,
      "longitude": 126.9968865
    }
  },
  {
    "model": "pc.dong",
    "pk": 193,
    "fields": {
      "name": "구기동",
      "si": 23,
      "doe": 1,
      "latitude": 37.6068916,
      "longitude": 126.9584568
    }
  },
  {
    "model": "pc.dong",
    "pk": 194,
    "fields": {
      "name": "창신동",
      "si": 23,
      "doe": 1,
      "latitude": 37.5727008,
      "longitude": 127.0119089
    }
  },
  {
    "model": "pc.dong",
    "pk": 195,
    "fields": {
      "name": "통인동",
      "si": 23,
      "doe": 1,
      "latitude": 37.5790299,
      "longitude": 126.9711552
    }
  },
  {
    "model": "pc.dong",
    "pk": 196,
    "fields": {
      "name": "낙원동",
      "si": 23,
      "doe": 1,
      "latitude": 37.5720509,
      "longitude": 126.9887478
    }
  },
  {
    "model": "pc.dong",
    "pk": 197,
    "fields": {
      "name": "무악동",
      "si": 23,
      "doe": 1,
      "latitude": 37.574805,
      "longitude": 126.9578918
    }
  },
  {
    "model": "pc.dong",
    "pk": 198,
    "fields": {
      "name": "동숭동",
      "si": 23,
      "doe": 1,
      "latitude": 37.5818485,
      "longitude": 127.0030531
    }
  },
  {
    "model": "pc.dong",
    "pk": 199,
    "fields": {
      "name": "숭인동",
      "si": 23,
      "doe": 1,
      "latitude": 37.5746323,
      "longitude": 127.02017
    }
  },
  {
    "model": "pc.dong",
    "pk": 200,
    "fields": {
      "name": "관수동",
      "si": 23,
      "doe": 1,
      "latitude": 37.5697636,
      "longitude": 126.9888632
    }
  },
  {
    "model": "pc.dong",
    "pk": 201,
    "fields": {
      "name": "명륜4가",
      "si": 23,
      "doe": 1,
      "latitude": 37.582582,
      "longitude": 126.9986807
    }
  },
  {
    "model": "pc.dong",
    "pk": 202,
    "fields": {
      "name": "관철동",
      "si": 23,
      "doe": 1,
      "latitude": 37.56935,
      "longitude": 126.9858464
    }
  },
  {
    "model": "pc.dong",
    "pk": 203,
    "fields": {
      "name": "교남동",
      "si": 23,
      "doe": 1,
      "latitude": 37.5674278,
      "longitude": 126.965494
    }
  },
  {
    "model": "pc.dong",
    "pk": 204,
    "fields": {
      "name": "체부동",
      "si": 23,
      "doe": 1,
      "latitude": 37.5767422,
      "longitude": 126.9704513
    }
  },
  {
    "model": "pc.dong",
    "pk": 205,
    "fields": {
      "name": "명륜3가",
      "si": 23,
      "doe": 1,
      "latitude": 37.5892576,
      "longitude": 126.9948767
    }
  },
  {
    "model": "pc.dong",
    "pk": 206,
    "fields": {
      "name": "평동",
      "si": 23,
      "doe": 1,
      "latitude": 37.5664992,
      "longitude": 126.9665254
    }
  },
  {
    "model": "pc.dong",
    "pk": 207,
    "fields": {
      "name": "명륜2가",
      "si": 23,
      "doe": 1,
      "latitude": 37.5834771,
      "longitude": 126.9986419
    }
  },
  {
    "model": "pc.dong",
    "pk": 208,
    "fields": {
      "name": "적선동",
      "si": 23,
      "doe": 1,
      "latitude": 37.576391,
      "longitude": 126.9728652
    }
  },
  {
    "model": "pc.dong",
    "pk": 209,
    "fields": {
      "name": "평창동",
      "si": 23,
      "doe": 1,
      "latitude": 37.6048983,
      "longitude": 126.964733
    }
  },
  {
    "model": "pc.dong",
    "pk": 210,
    "fields": {
      "name": "내수동",
      "si": 23,
      "doe": 1,
      "latitude": 37.5734549,
      "longitude": 126.9732622
    }
  },
  {
    "model": "pc.dong",
    "pk": 211,
    "fields": {
      "name": "종로5가",
      "si": 23,
      "doe": 1,
      "latitude": 37.5713034,
      "longitude": 127.0037237
    }
  },
  {
    "model": "pc.dong",
    "pk": 212,
    "fields": {
      "name": "종로3가",
      "si": 23,
      "doe": 1,
      "latitude": 37.5706942,
      "longitude": 126.9919162
    }
  },
  {
    "model": "pc.dong",
    "pk": 213,
    "fields": {
      "name": "중림동",
      "si": 24,
      "doe": 1,
      "latitude": 37.5587691,
      "longitude": 126.96378
    }
  },
  {
    "model": "pc.dong",
    "pk": 214,
    "fields": {
      "name": "을지로6가",
      "si": 24,
      "doe": 1,
      "latitude": 37.5673915,
      "longitude": 127.0074645
    }
  },
  {
    "model": "pc.dong",
    "pk": 215,
    "fields": {
      "name": "신당동",
      "si": 24,
      "doe": 1,
      "latitude": 37.5596101,
      "longitude": 127.0149112
    }
  },
  {
    "model": "pc.dong",
    "pk": 216,
    "fields": {
      "name": "충무로5가",
      "si": 24,
      "doe": 1,
      "latitude": 37.5615302,
      "longitude": 126.9980228
    }
  },
  {
    "model": "pc.dong",
    "pk": 217,
    "fields": {
      "name": "명동2가",
      "si": 24,
      "doe": 1,
      "latitude": 37.5634007,
      "longitude": 126.9840973
    }
  },
  {
    "model": "pc.dong",
    "pk": 218,
    "fields": {
      "name": "장충동2가",
      "si": 24,
      "doe": 1,
      "latitude": 37.560223,
      "longitude": 127.0039243
    }
  },
  {
    "model": "pc.dong",
    "pk": 219,
    "fields": {
      "name": "태평로2가",
      "si": 24,
      "doe": 1,
      "latitude": 37.5645868,
      "longitude": 126.976557
    }
  },
  {
    "model": "pc.dong",
    "pk": 220,
    "fields": {
      "name": "남창동",
      "si": 24,
      "doe": 1,
      "latitude": 37.5575419,
      "longitude": 126.977177
    }
  },
  {
    "model": "pc.dong",
    "pk": 221,
    "fields": {
      "name": "필동2가",
      "si": 24,
      "doe": 1,
      "latitude": 37.5613222,
      "longitude": 126.9961108
    }
  },
  {
    "model": "pc.dong",
    "pk": 222,
    "fields": {
      "name": "충무로1가",
      "si": 24,
      "doe": 1,
      "latitude": 37.5616447,
      "longitude": 126.9848037
    }
  },
  {
    "model": "pc.dong",
    "pk": 223,
    "fields": {
      "name": "필동3가",
      "si": 24,
      "doe": 1,
      "latitude": 37.5611881,
      "longitude": 126.9977043
    }
  },
  {
    "model": "pc.dong",
    "pk": 224,
    "fields": {
      "name": "삼선동2가",
      "si": 25,
      "doe": 1,
      "latitude": 37.5871077,
      "longitude": 127.009479
    }
  },
  {
    "model": "pc.dong",
    "pk": 225,
    "fields": {
      "name": "하월곡동",
      "si": 25,
      "doe": 1,
      "latitude": 37.6043631,
      "longitude": 127.0399435
    }
  },
  {
    "model": "pc.dong",
    "pk": 226,
    "fields": {
      "name": "장위동",
      "si": 25,
      "doe": 1,
      "latitude": 37.6152094,
      "longitude": 127.0501212
    }
  },
  {
    "model": "pc.dong",
    "pk": 227,
    "fields": {
      "name": "안암동5가",
      "si": 25,
      "doe": 1,
      "latitude": 37.5851598,
      "longitude": 127.0291442
    }
  },
  {
    "model": "pc.dong",
    "pk": 228,
    "fields": {
      "name": "정릉동",
      "si": 25,
      "doe": 1,
      "latitude": 37.6093088,
      "longitude": 127.0093871
    }
  },
  {
    "model": "pc.dong",
    "pk": 229,
    "fields": {
      "name": "동선동5가",
      "si": 25,
      "doe": 1,
      "latitude": 37.5959024,
      "longitude": 127.0159673
    }
  },
  {
    "model": "pc.dong",
    "pk": 230,
    "fields": {
      "name": "길음동",
      "si": 25,
      "doe": 1,
      "latitude": 37.6048416,
      "longitude": 127.0248721
    }
  },
  {
    "model": "pc.dong",
    "pk": 231,
    "fields": {
      "name": "삼선동4가",
      "si": 25,
      "doe": 1,
      "latitude": 37.5904016,
      "longitude": 127.0138392
    }
  },
  {
    "model": "pc.dong",
    "pk": 232,
    "fields": {
      "name": "석관동",
      "si": 25,
      "doe": 1,
      "latitude": 37.610538,
      "longitude": 127.0627403
    }
  },
  {
    "model": "pc.dong",
    "pk": 233,
    "fields": {
      "name": "종암동",
      "si": 25,
      "doe": 1,
      "latitude": 37.5975124,
      "longitude": 127.0344521
    }
  },
  {
    "model": "pc.dong",
    "pk": 234,
    "fields": {
      "name": "보문동4가",
      "si": 25,
      "doe": 1,
      "latitude": 37.5837246,
      "longitude": 127.0206176
    }
  },
  {
    "model": "pc.dong",
    "pk": 235,
    "fields": {
      "name": "보문동2가",
      "si": 25,
      "doe": 1,
      "latitude": 37.5850456,
      "longitude": 127.0193016
    }
  },
  {
    "model": "pc.dong",
    "pk": 236,
    "fields": {
      "name": "동선동1가",
      "si": 25,
      "doe": 1,
      "latitude": 37.5930496,
      "longitude": 127.0177508
    }
  },
  {
    "model": "pc.dong",
    "pk": 237,
    "fields": {
      "name": "보문동5가",
      "si": 25,
      "doe": 1,
      "latitude": 37.581064,
      "longitude": 127.0213137
    }
  },
  {
    "model": "pc.dong",
    "pk": 238,
    "fields": {
      "name": "성북동",
      "si": 25,
      "doe": 1,
      "latitude": 37.5904957,
      "longitude": 127.0043373
    }
  },
  {
    "model": "pc.dong",
    "pk": 239,
    "fields": {
      "name": "안암동4가",
      "si": 25,
      "doe": 1,
      "latitude": 37.5806234,
      "longitude": 127.0247725
    }
  },
  {
    "model": "pc.dong",
    "pk": 240,
    "fields": {
      "name": "성북동1가",
      "si": 25,
      "doe": 1,
      "latitude": 37.5886159,
      "longitude": 127.0055241
    }
  },
  {
    "model": "pc.dong",
    "pk": 241,
    "fields": {
      "name": "금승리",
      "si": 26,
      "doe": 2,
      "latitude": 37.8102024,
      "longitude": 126.7584834
    }
  },
  {
    "model": "pc.dong",
    "pk": 242,
    "fields": {
      "name": "당동리",
      "si": 26,
      "doe": 2,
      "latitude": 37.8652864,
      "longitude": 126.7803485
    }
  },
  {
    "model": "pc.dong",
    "pk": 243,
    "fields": {
      "name": "동패동",
      "si": 26,
      "doe": 2,
      "latitude": 37.7165003,
      "longitude": 126.7332083
    }
  },
  {
    "model": "pc.dong",
    "pk": 244,
    "fields": {
      "name": "금촌동",
      "si": 26,
      "doe": 2,
      "latitude": 37.7574127,
      "longitude": 126.7725405
    }
  },
  {
    "model": "pc.dong",
    "pk": 245,
    "fields": {
      "name": "아동동",
      "si": 26,
      "doe": 2,
      "latitude": 37.7680832,
      "longitude": 126.7765483
    }
  },
  {
    "model": "pc.dong",
    "pk": 246,
    "fields": {
      "name": "문산리",
      "si": 26,
      "doe": 2,
      "latitude": 37.8577031,
      "longitude": 126.7850629
    }
  },
  {
    "model": "pc.dong",
    "pk": 247,
    "fields": {
      "name": "대능리",
      "si": 26,
      "doe": 2,
      "latitude": 37.8493036,
      "longitude": 126.8730376
    }
  },
  {
    "model": "pc.dong",
    "pk": 248,
    "fields": {
      "name": "선유리",
      "si": 26,
      "doe": 2,
      "latitude": 37.864116,
      "longitude": 126.8056572
    }
  },
  {
    "model": "pc.dong",
    "pk": 249,
    "fields": {
      "name": "봉일천리",
      "si": 26,
      "doe": 2,
      "latitude": 37.7430607,
      "longitude": 126.8094272
    }
  },
  {
    "model": "pc.dong",
    "pk": 250,
    "fields": {
      "name": "와동동",
      "si": 26,
      "doe": 2,
      "latitude": 37.7310405,
      "longitude": 126.7536549
    }
  },
  {
    "model": "pc.dong",
    "pk": 251,
    "fields": {
      "name": "신산리",
      "si": 26,
      "doe": 2,
      "latitude": 37.7810288,
      "longitude": 126.8465982
    }
  },
  {
    "model": "pc.dong",
    "pk": 252,
    "fields": {
      "name": "마지리",
      "si": 26,
      "doe": 2,
      "latitude": 37.9547785,
      "longitude": 126.9186552
    }
  },
  {
    "model": "pc.dong",
    "pk": 253,
    "fields": {
      "name": "야당동",
      "si": 26,
      "doe": 2,
      "latitude": 37.7140229,
      "longitude": 126.7478544
    }
  },
  {
    "model": "pc.dong",
    "pk": 254,
    "fields": {
      "name": "덕은리",
      "si": 26,
      "doe": 2,
      "latitude": 37.808581,
      "longitude": 126.7614356
    }
  },
  {
    "model": "pc.dong",
    "pk": 255,
    "fields": {
      "name": "법흥리",
      "si": 26,
      "doe": 2,
      "latitude": 37.7703986,
      "longitude": 126.7035777
    }
  },
  {
    "model": "pc.dong",
    "pk": 256,
    "fields": {
      "name": "야동동",
      "si": 26,
      "doe": 2,
      "latitude": 37.7822094,
      "longitude": 126.7640454
    }
  },
  {
    "model": "pc.dong",
    "pk": 257,
    "fields": {
      "name": "금곡동",
      "si": 27,
      "doe": 2,
      "latitude": 37.2722175,
      "longitude": 126.9454799
    }
  },
  {
    "model": "pc.dong",
    "pk": 258,
    "fields": {
      "name": "곡반정동",
      "si": 27,
      "doe": 2,
      "latitude": 37.238961,
      "longitude": 127.0297906
    }
  },
  {
    "model": "pc.dong",
    "pk": 259,
    "fields": {
      "name": "고색동",
      "si": 27,
      "doe": 2,
      "latitude": 37.2496686,
      "longitude": 126.9814667
    }
  },
  {
    "model": "pc.dong",
    "pk": 260,
    "fields": {
      "name": "권선동",
      "si": 27,
      "doe": 2,
      "latitude": 37.2546693,
      "longitude": 127.0281029
    }
  },
  {
    "model": "pc.dong",
    "pk": 261,
    "fields": {
      "name": "당수동",
      "si": 27,
      "doe": 2,
      "latitude": 37.2921125,
      "longitude": 126.9389506
    }
  },
  {
    "model": "pc.dong",
    "pk": 262,
    "fields": {
      "name": "세류동",
      "si": 27,
      "doe": 2,
      "latitude": 37.2541476,
      "longitude": 127.0149932
    }
  },
  {
    "model": "pc.dong",
    "pk": 263,
    "fields": {
      "name": "탑동",
      "si": 27,
      "doe": 2,
      "latitude": 37.2702809,
      "longitude": 126.9744847
    }
  },
  {
    "model": "pc.dong",
    "pk": 264,
    "fields": {
      "name": "서둔동",
      "si": 27,
      "doe": 2,
      "latitude": 37.2667217,
      "longitude": 126.9941189
    }
  },
  {
    "model": "pc.dong",
    "pk": 265,
    "fields": {
      "name": "장지동",
      "si": 27,
      "doe": 2,
      "latitude": 37.2439047,
      "longitude": 127.0143442
    }
  },
  {
    "model": "pc.dong",
    "pk": 266,
    "fields": {
      "name": "오목천동",
      "si": 27,
      "doe": 2,
      "latitude": 37.2437985,
      "longitude": 126.9660371
    }
  },
  {
    "model": "pc.dong",
    "pk": 267,
    "fields": {
      "name": "구운동",
      "si": 27,
      "doe": 2,
      "latitude": 37.2775479,
      "longitude": 126.9719982
    }
  },
  {
    "model": "pc.dong",
    "pk": 268,
    "fields": {
      "name": "호매실동",
      "si": 27,
      "doe": 2,
      "latitude": 37.2690812,
      "longitude": 126.9563267
    }
  },
  {
    "model": "pc.dong",
    "pk": 269,
    "fields": {
      "name": "매산로1가",
      "si": 28,
      "doe": 2,
      "latitude": 37.2675108,
      "longitude": 127.0019052
    }
  },
  {
    "model": "pc.dong",
    "pk": 270,
    "fields": {
      "name": "화서동",
      "si": 28,
      "doe": 2,
      "latitude": 37.2822355,
      "longitude": 126.9966678
    }
  },
  {
    "model": "pc.dong",
    "pk": 271,
    "fields": {
      "name": "인계동",
      "si": 28,
      "doe": 2,
      "latitude": 37.2673488,
      "longitude": 127.0291917
    }
  },
  {
    "model": "pc.dong",
    "pk": 272,
    "fields": {
      "name": "우만동",
      "si": 28,
      "doe": 2,
      "latitude": 37.2822298,
      "longitude": 127.0356948
    }
  },
  {
    "model": "pc.dong",
    "pk": 273,
    "fields": {
      "name": "매산로2가",
      "si": 28,
      "doe": 2,
      "latitude": 37.2689147,
      "longitude": 127.0057655
    }
  },
  {
    "model": "pc.dong",
    "pk": 274,
    "fields": {
      "name": "지동",
      "si": 28,
      "doe": 2,
      "latitude": 37.2801215,
      "longitude": 127.0243388
    }
  },
  {
    "model": "pc.dong",
    "pk": 275,
    "fields": {
      "name": "남수동",
      "si": 28,
      "doe": 2,
      "latitude": 37.2817089,
      "longitude": 127.0186888
    }
  },
  {
    "model": "pc.dong",
    "pk": 276,
    "fields": {
      "name": "신풍동",
      "si": 28,
      "doe": 2,
      "latitude": 37.2854355,
      "longitude": 127.0153275
    }
  },
  {
    "model": "pc.dong",
    "pk": 277,
    "fields": {
      "name": "중동",
      "si": 28,
      "doe": 2,
      "latitude": 37.2749205,
      "longitude": 127.0161147
    }
  },
  {
    "model": "pc.dong",
    "pk": 278,
    "fields": {
      "name": "고등동",
      "si": 28,
      "doe": 2,
      "latitude": 37.2698792,
      "longitude": 127.0046032
    }
  },
  {
    "model": "pc.dong",
    "pk": 279,
    "fields": {
      "name": "매교동",
      "si": 28,
      "doe": 2,
      "latitude": 37.2669692,
      "longitude": 127.0164731
    }
  },
  {
    "model": "pc.dong",
    "pk": 280,
    "fields": {
      "name": "망포동",
      "si": 29,
      "doe": 2,
      "latitude": 37.2387778,
      "longitude": 127.059686
    }
  },
  {
    "model": "pc.dong",
    "pk": 281,
    "fields": {
      "name": "영통동",
      "si": 29,
      "doe": 2,
      "latitude": 37.2517678,
      "longitude": 127.0726026
    }
  },
  {
    "model": "pc.dong",
    "pk": 282,
    "fields": {
      "name": "하동",
      "si": 29,
      "doe": 2,
      "latitude": 37.2927212,
      "longitude": 127.0679905
    }
  },
  {
    "model": "pc.dong",
    "pk": 283,
    "fields": {
      "name": "이의동",
      "si": 29,
      "doe": 2,
      "latitude": 37.2992928,
      "longitude": 127.0436908
    }
  },
  {
    "model": "pc.dong",
    "pk": 284,
    "fields": {
      "name": "매탄동",
      "si": 29,
      "doe": 2,
      "latitude": 37.2653755,
      "longitude": 127.0462687
    }
  },
  {
    "model": "pc.dong",
    "pk": 285,
    "fields": {
      "name": "원천동",
      "si": 29,
      "doe": 2,
      "latitude": 37.2750199,
      "longitude": 127.0493766
    }
  },
  {
    "model": "pc.dong",
    "pk": 286,
    "fields": {
      "name": "태평동",
      "si": 30,
      "doe": 2,
      "latitude": 37.4434161,
      "longitude": 127.1331044
    }
  },
  {
    "model": "pc.dong",
    "pk": 287,
    "fields": {
      "name": "수진동",
      "si": 30,
      "doe": 2,
      "latitude": 37.4408726,
      "longitude": 127.1325014
    }
  },
  {
    "model": "pc.dong",
    "pk": 288,
    "fields": {
      "name": "복정동",
      "si": 30,
      "doe": 2,
      "latitude": 37.4565694,
      "longitude": 127.1268878
    }
  },
  {
    "model": "pc.dong",
    "pk": 289,
    "fields": {
      "name": "신흥동",
      "si": 30,
      "doe": 2,
      "latitude": 37.4433514,
      "longitude": 127.1439117
    }
  },
  {
    "model": "pc.dong",
    "pk": 290,
    "fields": {
      "name": "산성동",
      "si": 30,
      "doe": 2,
      "latitude": 37.4547568,
      "longitude": 127.1509911
    }
  },
  {
    "model": "pc.dong",
    "pk": 291,
    "fields": {
      "name": "양지동",
      "si": 30,
      "doe": 2,
      "latitude": 37.4592952,
      "longitude": 127.1649208
    }
  },
  {
    "model": "pc.dong",
    "pk": 292,
    "fields": {
      "name": "창곡동",
      "si": 30,
      "doe": 2,
      "latitude": 37.4665744,
      "longitude": 127.140072
    }
  },
  {
    "model": "pc.dong",
    "pk": 293,
    "fields": {
      "name": "은행동",
      "si": 31,
      "doe": 2,
      "latitude": 37.4575338,
      "longitude": 127.1660258
    }
  },
  {
    "model": "pc.dong",
    "pk": 294,
    "fields": {
      "name": "상대원동",
      "si": 31,
      "doe": 2,
      "latitude": 37.436202,
      "longitude": 127.1611346
    }
  },
  {
    "model": "pc.dong",
    "pk": 295,
    "fields": {
      "name": "성남동",
      "si": 31,
      "doe": 2,
      "latitude": 37.4325767,
      "longitude": 127.1343311
    }
  },
  {
    "model": "pc.dong",
    "pk": 296,
    "fields": {
      "name": "금광동",
      "si": 31,
      "doe": 2,
      "latitude": 37.4466941,
      "longitude": 127.1613659
    }
  },
  {
    "model": "pc.dong",
    "pk": 297,
    "fields": {
      "name": "중앙동",
      "si": 31,
      "doe": 2,
      "latitude": 37.4404471,
      "longitude": 127.1476736
    }
  },
  {
    "model": "pc.dong",
    "pk": 298,
    "fields": {
      "name": "도촌동",
      "si": 31,
      "doe": 2,
      "latitude": 37.4147452,
      "longitude": 127.151093
    }
  },
  {
    "model": "pc.dong",
    "pk": 299,
    "fields": {
      "name": "반송동",
      "si": 32,
      "doe": 2,
      "latitude": 37.203043,
      "longitude": 127.0720144
    }
  },
  {
    "model": "pc.dong",
    "pk": 300,
    "fields": {
      "name": "와우리",
      "si": 32,
      "doe": 2,
      "latitude": 37.2146966,
      "longitude": 126.9766731
    }
  },
  {
    "model": "pc.dong",
    "pk": 301,
    "fields": {
      "name": "병점동",
      "si": 32,
      "doe": 2,
      "latitude": 37.20901,
      "longitude": 127.0398455
    }
  },
  {
    "model": "pc.dong",
    "pk": 302,
    "fields": {
      "name": "진안동",
      "si": 32,
      "doe": 2,
      "latitude": 37.2139949,
      "longitude": 127.041306
    }
  },
  {
    "model": "pc.dong",
    "pk": 303,
    "fields": {
      "name": "송산동",
      "si": 32,
      "doe": 2,
      "latitude": 37.2070211,
      "longitude": 127.0150557
    }
  },
  {
    "model": "pc.dong",
    "pk": 304,
    "fields": {
      "name": "수기리",
      "si": 32,
      "doe": 2,
      "latitude": 37.2056087,
      "longitude": 126.9802956
    }
  },
  {
    "model": "pc.dong",
    "pk": 305,
    "fields": {
      "name": "반월동",
      "si": 32,
      "doe": 2,
      "latitude": 37.2349411,
      "longitude": 127.0630098
    }
  },
  {
    "model": "pc.dong",
    "pk": 306,
    "fields": {
      "name": "발안리",
      "si": 32,
      "doe": 2,
      "latitude": 37.1316389,
      "longitude": 126.9018154
    }
  },
  {
    "model": "pc.dong",
    "pk": 307,
    "fields": {
      "name": "사강리",
      "si": 32,
      "doe": 2,
      "latitude": 37.2134108,
      "longitude": 126.7363264
    }
  },
  {
    "model": "pc.dong",
    "pk": 308,
    "fields": {
      "name": "조암리",
      "si": 32,
      "doe": 2,
      "latitude": 37.0832679,
      "longitude": 126.8176868
    }
  },
  {
    "model": "pc.dong",
    "pk": 309,
    "fields": {
      "name": "평리",
      "si": 32,
      "doe": 2,
      "latitude": 37.1314584,
      "longitude": 126.9082131
    }
  },
  {
    "model": "pc.dong",
    "pk": 310,
    "fields": {
      "name": "두곡리",
      "si": 32,
      "doe": 2,
      "latitude": 37.2044817,
      "longitude": 126.7803344
    }
  },
  {
    "model": "pc.dong",
    "pk": 311,
    "fields": {
      "name": "동화리",
      "si": 32,
      "doe": 2,
      "latitude": 37.2169406,
      "longitude": 126.9591211
    }
  },
  {
    "model": "pc.dong",
    "pk": 312,
    "fields": {
      "name": "기산동",
      "si": 32,
      "doe": 2,
      "latitude": 37.2216383,
      "longitude": 127.0506348
    }
  },
  {
    "model": "pc.dong",
    "pk": 313,
    "fields": {
      "name": " ",
      "si": 32,
      "doe": 2,
      "latitude": 37.2044353,
      "longitude": 127.1120254
    }
  },
  {
    "model": "pc.dong",
    "pk": 314,
    "fields": {
      "name": "구문천리",
      "si": 32,
      "doe": 2,
      "latitude": 37.0832804,
      "longitude": 126.9046323
    }
  },
  {
    "model": "pc.dong",
    "pk": 315,
    "fields": {
      "name": "기안동",
      "si": 32,
      "doe": 2,
      "latitude": 37.2245231,
      "longitude": 126.9727304
    }
  },
  {
    "model": "pc.dong",
    "pk": 316,
    "fields": {
      "name": "능동",
      "si": 32,
      "doe": 2,
      "latitude": 37.2087356,
      "longitude": 127.0568558
    }
  },
  {
    "model": "pc.dong",
    "pk": 317,
    "fields": {
      "name": "상리",
      "si": 32,
      "doe": 2,
      "latitude": 37.2196866,
      "longitude": 126.9488365
    }
  },
  {
    "model": "pc.dong",
    "pk": 318,
    "fields": {
      "name": "행정리",
      "si": 32,
      "doe": 2,
      "latitude": 37.129418,
      "longitude": 126.9209113
    }
  },
  {
    "model": "pc.dong",
    "pk": 319,
    "fields": {
      "name": "구장리",
      "si": 32,
      "doe": 2,
      "latitude": 37.1676958,
      "longitude": 126.8947681
    }
  },
  {
    "model": "pc.dong",
    "pk": 320,
    "fields": {
      "name": "덕절리",
      "si": 32,
      "doe": 2,
      "latitude": 37.1331751,
      "longitude": 127.0258812
    }
  },
  {
    "model": "pc.dong",
    "pk": 321,
    "fields": {
      "name": "안녕동",
      "si": 32,
      "doe": 2,
      "latitude": 37.2054927,
      "longitude": 127.0150267
    }
  },
  {
    "model": "pc.dong",
    "pk": 322,
    "fields": {
      "name": "봉가리",
      "si": 32,
      "doe": 2,
      "latitude": 37.2130767,
      "longitude": 126.7390338
    }
  },
  {
    "model": "pc.dong",
    "pk": 323,
    "fields": {
      "name": "판교동",
      "si": 33,
      "doe": 2,
      "latitude": 37.3895084,
      "longitude": 127.0914937
    }
  },
  {
    "model": "pc.dong",
    "pk": 324,
    "fields": {
      "name": "삼평동",
      "si": 33,
      "doe": 2,
      "latitude": 37.3979211,
      "longitude": 127.1117282
    }
  },
  {
    "model": "pc.dong",
    "pk": 325,
    "fields": {
      "name": "서현동",
      "si": 33,
      "doe": 2,
      "latitude": 37.3853479,
      "longitude": 127.1236714
    }
  },
  {
    "model": "pc.dong",
    "pk": 326,
    "fields": {
      "name": "금곡동",
      "si": 33,
      "doe": 2,
      "latitude": 37.3505542,
      "longitude": 127.1098077
    }
  },
  {
    "model": "pc.dong",
    "pk": 327,
    "fields": {
      "name": "수내동",
      "si": 33,
      "doe": 2,
      "latitude": 37.3767239,
      "longitude": 127.1159628
    }
  },
  {
    "model": "pc.dong",
    "pk": 328,
    "fields": {
      "name": "구미동",
      "si": 33,
      "doe": 2,
      "latitude": 37.3448576,
      "longitude": 127.110418
    }
  },
  {
    "model": "pc.dong",
    "pk": 329,
    "fields": {
      "name": "야탑동",
      "si": 33,
      "doe": 2,
      "latitude": 37.4107857,
      "longitude": 127.1295236
    }
  },
  {
    "model": "pc.dong",
    "pk": 330,
    "fields": {
      "name": "정자동",
      "si": 33,
      "doe": 2,
      "latitude": 37.3677707,
      "longitude": 127.1097256
    }
  },
  {
    "model": "pc.dong",
    "pk": 331,
    "fields": {
      "name": "이매동",
      "si": 33,
      "doe": 2,
      "latitude": 37.4018984,
      "longitude": 127.1265667
    }
  },
  {
    "model": "pc.dong",
    "pk": 332,
    "fields": {
      "name": "운중동",
      "si": 33,
      "doe": 2,
      "latitude": 37.3919781,
      "longitude": 127.077392
    }
  },
  {
    "model": "pc.dong",
    "pk": 333,
    "fields": {
      "name": "분당동",
      "si": 33,
      "doe": 2,
      "latitude": 37.3679538,
      "longitude": 127.1425276
    }
  },
  {
    "model": "pc.dong",
    "pk": 334,
    "fields": {
      "name": "박달동",
      "si": 34,
      "doe": 2,
      "latitude": 37.4035039,
      "longitude": 126.9091928
    }
  },
  {
    "model": "pc.dong",
    "pk": 335,
    "fields": {
      "name": "안양동",
      "si": 34,
      "doe": 2,
      "latitude": 37.3943407,
      "longitude": 126.9234062
    }
  },
  {
    "model": "pc.dong",
    "pk": 336,
    "fields": {
      "name": "석수동",
      "si": 34,
      "doe": 2,
      "latitude": 37.4144955,
      "longitude": 126.9077766
    }
  },
  {
    "model": "pc.dong",
    "pk": 337,
    "fields": {
      "name": "호계동",
      "si": 35,
      "doe": 2,
      "latitude": 37.382031,
      "longitude": 126.9555305
    }
  },
  {
    "model": "pc.dong",
    "pk": 338,
    "fields": {
      "name": "평촌동",
      "si": 35,
      "doe": 2,
      "latitude": 37.3888458,
      "longitude": 126.9692227
    }
  },
  {
    "model": "pc.dong",
    "pk": 339,
    "fields": {
      "name": "관양동",
      "si": 35,
      "doe": 2,
      "latitude": 37.4010453,
      "longitude": 126.9633741
    }
  },
  {
    "model": "pc.dong",
    "pk": 340,
    "fields": {
      "name": "비산동",
      "si": 35,
      "doe": 2,
      "latitude": 37.4008442,
      "longitude": 126.9433714
    }
  },
  {
    "model": "pc.dong",
    "pk": 341,
    "fields": {
      "name": "역곡동",
      "si": 36,
      "doe": 2,
      "latitude": 37.486512,
      "longitude": 126.8102738
    }
  },
  {
    "model": "pc.dong",
    "pk": 342,
    "fields": {
      "name": "상동",
      "si": 36,
      "doe": 2,
      "latitude": 37.5016646,
      "longitude": 126.7527503
    }
  },
  {
    "model": "pc.dong",
    "pk": 343,
    "fields": {
      "name": "심곡동",
      "si": 36,
      "doe": 2,
      "latitude": 37.4874418,
      "longitude": 126.7813368
    }
  },
  {
    "model": "pc.dong",
    "pk": 344,
    "fields": {
      "name": "중동",
      "si": 36,
      "doe": 2,
      "latitude": 37.4982089,
      "longitude": 126.769575
    }
  },
  {
    "model": "pc.dong",
    "pk": 345,
    "fields": {
      "name": "도당동",
      "si": 36,
      "doe": 2,
      "latitude": 37.5123807,
      "longitude": 126.7850636
    }
  },
  {
    "model": "pc.dong",
    "pk": 346,
    "fields": {
      "name": "원미동",
      "si": 36,
      "doe": 2,
      "latitude": 37.4943827,
      "longitude": 126.7882487
    }
  },
  {
    "model": "pc.dong",
    "pk": 347,
    "fields": {
      "name": "춘의동",
      "si": 36,
      "doe": 2,
      "latitude": 37.5046286,
      "longitude": 126.7846974
    }
  },
  {
    "model": "pc.dong",
    "pk": 348,
    "fields": {
      "name": "소사동",
      "si": 36,
      "doe": 2,
      "latitude": 37.4844761,
      "longitude": 126.7967195
    }
  },
  {
    "model": "pc.dong",
    "pk": 349,
    "fields": {
      "name": "약대동",
      "si": 36,
      "doe": 2,
      "latitude": 37.5127983,
      "longitude": 126.7703662
    }
  },
  {
    "model": "pc.dong",
    "pk": 350,
    "fields": {
      "name": "괴안동",
      "si": 37,
      "doe": 2,
      "latitude": 37.4815753,
      "longitude": 126.8096796
    }
  },
  {
    "model": "pc.dong",
    "pk": 351,
    "fields": {
      "name": "소사본동",
      "si": 37,
      "doe": 2,
      "latitude": 37.4761418,
      "longitude": 126.7974433
    }
  },
  {
    "model": "pc.dong",
    "pk": 352,
    "fields": {
      "name": "송내동",
      "si": 37,
      "doe": 2,
      "latitude": 37.4837112,
      "longitude": 126.7633898
    }
  },
  {
    "model": "pc.dong",
    "pk": 353,
    "fields": {
      "name": "심곡본동",
      "si": 37,
      "doe": 2,
      "latitude": 37.4819575,
      "longitude": 126.7777269
    }
  },
  {
    "model": "pc.dong",
    "pk": 354,
    "fields": {
      "name": "범박동",
      "si": 37,
      "doe": 2,
      "latitude": 37.4727023,
      "longitude": 126.8132625
    }
  },
  {
    "model": "pc.dong",
    "pk": 355,
    "fields": {
      "name": "고강동",
      "si": 38,
      "doe": 2,
      "latitude": 37.5274079,
      "longitude": 126.8180218
    }
  },
  {
    "model": "pc.dong",
    "pk": 356,
    "fields": {
      "name": "여월동",
      "si": 38,
      "doe": 2,
      "latitude": 37.5209158,
      "longitude": 126.7959777
    }
  },
  {
    "model": "pc.dong",
    "pk": 357,
    "fields": {
      "name": "오정동",
      "si": 38,
      "doe": 2,
      "latitude": 37.5273327,
      "longitude": 126.7851722
    }
  },
  {
    "model": "pc.dong",
    "pk": 358,
    "fields": {
      "name": "삼정동",
      "si": 38,
      "doe": 2,
      "latitude": 37.5158603,
      "longitude": 126.7702602
    }
  },
  {
    "model": "pc.dong",
    "pk": 359,
    "fields": {
      "name": "작동",
      "si": 38,
      "doe": 2,
      "latitude": 37.5154849,
      "longitude": 126.8060663
    }
  },
  {
    "model": "pc.dong",
    "pk": 360,
    "fields": {
      "name": "원종동",
      "si": 38,
      "doe": 2,
      "latitude": 37.5240134,
      "longitude": 126.8044339
    }
  },
  {
    "model": "pc.dong",
    "pk": 361,
    "fields": {
      "name": "내동",
      "si": 38,
      "doe": 2,
      "latitude": 37.5205654,
      "longitude": 126.7865409
    }
  },
  {
    "model": "pc.dong",
    "pk": 362,
    "fields": {
      "name": "광명동",
      "si": 39,
      "doe": 2,
      "latitude": 37.4770559,
      "longitude": 126.8545751
    }
  },
  {
    "model": "pc.dong",
    "pk": 363,
    "fields": {
      "name": "소하동",
      "si": 39,
      "doe": 2,
      "latitude": 37.4430344,
      "longitude": 126.8828082
    }
  },
  {
    "model": "pc.dong",
    "pk": 364,
    "fields": {
      "name": "철산동",
      "si": 39,
      "doe": 2,
      "latitude": 37.4782699,
      "longitude": 126.8662975
    }
  },
  {
    "model": "pc.dong",
    "pk": 365,
    "fields": {
      "name": "하안동",
      "si": 39,
      "doe": 2,
      "latitude": 37.4620786,
      "longitude": 126.8790053
    }
  },
  {
    "model": "pc.dong",
    "pk": 366,
    "fields": {
      "name": "평택동",
      "si": 40,
      "doe": 2,
      "latitude": 36.9921751,
      "longitude": 127.0870809
    }
  },
  {
    "model": "pc.dong",
    "pk": 367,
    "fields": {
      "name": "신장동",
      "si": 40,
      "doe": 2,
      "latitude": 37.0786918,
      "longitude": 127.0556532
    }
  },
  {
    "model": "pc.dong",
    "pk": 368,
    "fields": {
      "name": "세교동",
      "si": 40,
      "doe": 2,
      "latitude": 37.0011607,
      "longitude": 127.0802116
    }
  },
  {
    "model": "pc.dong",
    "pk": 369,
    "fields": {
      "name": "비전동",
      "si": 40,
      "doe": 2,
      "latitude": 36.9963656,
      "longitude": 127.1104772
    }
  },
  {
    "model": "pc.dong",
    "pk": 370,
    "fields": {
      "name": "지산동",
      "si": 40,
      "doe": 2,
      "latitude": 37.0791431,
      "longitude": 127.058928
    }
  },
  {
    "model": "pc.dong",
    "pk": 371,
    "fields": {
      "name": "안정리",
      "si": 40,
      "doe": 2,
      "latitude": 36.9611046,
      "longitude": 127.0479716
    }
  },
  {
    "model": "pc.dong",
    "pk": 372,
    "fields": {
      "name": "현화리",
      "si": 40,
      "doe": 2,
      "latitude": 36.9801179,
      "longitude": 126.9244849
    }
  },
  {
    "model": "pc.dong",
    "pk": 373,
    "fields": {
      "name": "동삭동",
      "si": 40,
      "doe": 2,
      "latitude": 37.0094214,
      "longitude": 127.0943649
    }
  },
  {
    "model": "pc.dong",
    "pk": 374,
    "fields": {
      "name": "서정동",
      "si": 40,
      "doe": 2,
      "latitude": 37.0646948,
      "longitude": 127.0582027
    }
  },
  {
    "model": "pc.dong",
    "pk": 375,
    "fields": {
      "name": "합정동",
      "si": 40,
      "doe": 2,
      "latitude": 36.9905714,
      "longitude": 127.0998202
    }
  },
  {
    "model": "pc.dong",
    "pk": 376,
    "fields": {
      "name": "안중리",
      "si": 40,
      "doe": 2,
      "latitude": 36.9888316,
      "longitude": 126.9305234
    }
  },
  {
    "model": "pc.dong",
    "pk": 377,
    "fields": {
      "name": "숙성리",
      "si": 40,
      "doe": 2,
      "latitude": 37.0087386,
      "longitude": 126.9853296
    }
  },
  {
    "model": "pc.dong",
    "pk": 378,
    "fields": {
      "name": "용이동",
      "si": 40,
      "doe": 2,
      "latitude": 36.9945096,
      "longitude": 127.1364948
    }
  },
  {
    "model": "pc.dong",
    "pk": 379,
    "fields": {
      "name": "객사리",
      "si": 40,
      "doe": 2,
      "latitude": 36.9653325,
      "longitude": 127.0653983
    }
  },
  {
    "model": "pc.dong",
    "pk": 380,
    "fields": {
      "name": "이충동",
      "si": 40,
      "doe": 2,
      "latitude": 37.0588495,
      "longitude": 127.0630218
    }
  },
  {
    "model": "pc.dong",
    "pk": 381,
    "fields": {
      "name": "통복동",
      "si": 40,
      "doe": 2,
      "latitude": 36.998836,
      "longitude": 127.086151
    }
  },
  {
    "model": "pc.dong",
    "pk": 382,
    "fields": {
      "name": "장당동",
      "si": 40,
      "doe": 2,
      "latitude": 37.0535003,
      "longitude": 127.0551737
    }
  },
  {
    "model": "pc.dong",
    "pk": 383,
    "fields": {
      "name": "도곡리",
      "si": 40,
      "doe": 2,
      "latitude": 36.9890213,
      "longitude": 126.8442919
    }
  },
  {
    "model": "pc.dong",
    "pk": 384,
    "fields": {
      "name": "어연리",
      "si": 40,
      "doe": 2,
      "latitude": 37.0505097,
      "longitude": 126.9745824
    }
  },
  {
    "model": "pc.dong",
    "pk": 385,
    "fields": {
      "name": "옥길리",
      "si": 40,
      "doe": 2,
      "latitude": 37.0179751,
      "longitude": 126.9157481
    }
  },
  {
    "model": "pc.dong",
    "pk": 386,
    "fields": {
      "name": "장안동",
      "si": 40,
      "doe": 2,
      "latitude": 37.0609579,
      "longitude": 127.0782666
    }
  },
  {
    "model": "pc.dong",
    "pk": 387,
    "fields": {
      "name": "창전동",
      "si": 41,
      "doe": 2,
      "latitude": 37.2807618,
      "longitude": 127.4460878
    }
  },
  {
    "model": "pc.dong",
    "pk": 388,
    "fields": {
      "name": "송정동",
      "si": 41,
      "doe": 2,
      "latitude": 37.2969335,
      "longitude": 127.437145
    }
  },
  {
    "model": "pc.dong",
    "pk": 389,
    "fields": {
      "name": "증포동",
      "si": 41,
      "doe": 2,
      "latitude": 37.2905334,
      "longitude": 127.4546346
    }
  },
  {
    "model": "pc.dong",
    "pk": 390,
    "fields": {
      "name": "중리동",
      "si": 41,
      "doe": 2,
      "latitude": 37.2786819,
      "longitude": 127.4392718
    }
  },
  {
    "model": "pc.dong",
    "pk": 391,
    "fields": {
      "name": "신하리",
      "si": 41,
      "doe": 2,
      "latitude": 37.2605131,
      "longitude": 127.4751289
    }
  },
  {
    "model": "pc.dong",
    "pk": 392,
    "fields": {
      "name": "장호원리",
      "si": 41,
      "doe": 2,
      "latitude": 37.1177384,
      "longitude": 127.6303787
    }
  },
  {
    "model": "pc.dong",
    "pk": 393,
    "fields": {
      "name": "무촌리",
      "si": 41,
      "doe": 2,
      "latitude": 37.2837134,
      "longitude": 127.4883437
    }
  },
  {
    "model": "pc.dong",
    "pk": 394,
    "fields": {
      "name": "아미리",
      "si": 41,
      "doe": 2,
      "latitude": 37.2532586,
      "longitude": 127.4893141
    }
  },
  {
    "model": "pc.dong",
    "pk": 395,
    "fields": {
      "name": "수광리",
      "si": 41,
      "doe": 2,
      "latitude": 37.3071716,
      "longitude": 127.4023304
    }
  },
  {
    "model": "pc.dong",
    "pk": 396,
    "fields": {
      "name": "오천리",
      "si": 41,
      "doe": 2,
      "latitude": 37.2538753,
      "longitude": 127.3513926
    }
  },
  {
    "model": "pc.dong",
    "pk": 397,
    "fields": {
      "name": "해월리",
      "si": 41,
      "doe": 2,
      "latitude": 37.2139241,
      "longitude": 127.3561952
    }
  },
  {
    "model": "pc.dong",
    "pk": 398,
    "fields": {
      "name": "지행동",
      "si": 42,
      "doe": 2,
      "latitude": 37.8920831,
      "longitude": 127.0536632
    }
  },
  {
    "model": "pc.dong",
    "pk": 399,
    "fields": {
      "name": "생연동",
      "si": 42,
      "doe": 2,
      "latitude": 37.903788,
      "longitude": 127.0564347
    }
  },
  {
    "model": "pc.dong",
    "pk": 400,
    "fields": {
      "name": "보산동",
      "si": 42,
      "doe": 2,
      "latitude": 37.9144226,
      "longitude": 127.0577491
    }
  },
  {
    "model": "pc.dong",
    "pk": 401,
    "fields": {
      "name": "이동",
      "si": 43,
      "doe": 2,
      "latitude": 37.3085546,
      "longitude": 126.8549292
    }
  },
  {
    "model": "pc.dong",
    "pk": 402,
    "fields": {
      "name": "월피동",
      "si": 43,
      "doe": 2,
      "latitude": 37.3319343,
      "longitude": 126.8488237
    }
  },
  {
    "model": "pc.dong",
    "pk": 403,
    "fields": {
      "name": "사동",
      "si": 43,
      "doe": 2,
      "latitude": 37.2931226,
      "longitude": 126.8476695
    }
  },
  {
    "model": "pc.dong",
    "pk": 404,
    "fields": {
      "name": "일동",
      "si": 43,
      "doe": 2,
      "latitude": 37.3107015,
      "longitude": 126.8677328
    }
  },
  {
    "model": "pc.dong",
    "pk": 405,
    "fields": {
      "name": "본오동",
      "si": 43,
      "doe": 2,
      "latitude": 37.2935745,
      "longitude": 126.8661757
    }
  },
  {
    "model": "pc.dong",
    "pk": 406,
    "fields": {
      "name": "건건동",
      "si": 43,
      "doe": 2,
      "latitude": 37.3076046,
      "longitude": 126.9033016
    }
  },
  {
    "model": "pc.dong",
    "pk": 407,
    "fields": {
      "name": "부곡동",
      "si": 43,
      "doe": 2,
      "latitude": 37.3313355,
      "longitude": 126.8634304
    }
  },
  {
    "model": "pc.dong",
    "pk": 408,
    "fields": {
      "name": "성포동",
      "si": 43,
      "doe": 2,
      "latitude": 37.3213518,
      "longitude": 126.8437519
    }
  },
  {
    "model": "pc.dong",
    "pk": 409,
    "fields": {
      "name": "수암동",
      "si": 43,
      "doe": 2,
      "latitude": 37.3627726,
      "longitude": 126.8760432
    }
  },
  {
    "model": "pc.dong",
    "pk": 410,
    "fields": {
      "name": "고잔동",
      "si": 44,
      "doe": 2,
      "latitude": 37.3183407,
      "longitude": 126.8344703
    }
  },
  {
    "model": "pc.dong",
    "pk": 411,
    "fields": {
      "name": "원곡동",
      "si": 44,
      "doe": 2,
      "latitude": 37.3297609,
      "longitude": 126.7938276
    }
  },
  {
    "model": "pc.dong",
    "pk": 412,
    "fields": {
      "name": "신길동",
      "si": 44,
      "doe": 2,
      "latitude": 37.3344103,
      "longitude": 126.777275
    }
  },
  {
    "model": "pc.dong",
    "pk": 413,
    "fields": {
      "name": "와동",
      "si": 44,
      "doe": 2,
      "latitude": 37.3383951,
      "longitude": 126.8247076
    }
  },
  {
    "model": "pc.dong",
    "pk": 414,
    "fields": {
      "name": "초지동",
      "si": 44,
      "doe": 2,
      "latitude": 37.3078561,
      "longitude": 126.8161027
    }
  },
  {
    "model": "pc.dong",
    "pk": 415,
    "fields": {
      "name": "선부동",
      "si": 44,
      "doe": 2,
      "latitude": 37.3411663,
      "longitude": 126.8087034
    }
  },
  {
    "model": "pc.dong",
    "pk": 416,
    "fields": {
      "name": "승두리",
      "si": 45,
      "doe": 2,
      "latitude": 36.998543,
      "longitude": 127.1694751
    }
  },
  {
    "model": "pc.dong",
    "pk": 417,
    "fields": {
      "name": "내리",
      "si": 45,
      "doe": 2,
      "latitude": 37.0013288,
      "longitude": 127.2248389
    }
  },
  {
    "model": "pc.dong",
    "pk": 418,
    "fields": {
      "name": "양변리",
      "si": 45,
      "doe": 2,
      "latitude": 36.9609275,
      "longitude": 127.2448097
    }
  },
  {
    "model": "pc.dong",
    "pk": 419,
    "fields": {
      "name": "대천동",
      "si": 45,
      "doe": 2,
      "latitude": 37.0085913,
      "longitude": 127.2701023
    }
  },
  {
    "model": "pc.dong",
    "pk": 420,
    "fields": {
      "name": "진사리",
      "si": 45,
      "doe": 2,
      "latitude": 36.9924952,
      "longitude": 127.1384944
    }
  },
  {
    "model": "pc.dong",
    "pk": 421,
    "fields": {
      "name": "동본동",
      "si": 45,
      "doe": 2,
      "latitude": 37.0056464,
      "longitude": 127.2719339
    }
  },
  {
    "model": "pc.dong",
    "pk": 422,
    "fields": {
      "name": "당왕동",
      "si": 45,
      "doe": 2,
      "latitude": 37.0134144,
      "longitude": 127.2657524
    }
  },
  {
    "model": "pc.dong",
    "pk": 423,
    "fields": {
      "name": "마정리",
      "si": 45,
      "doe": 2,
      "latitude": 37.013859,
      "longitude": 127.205283
    }
  },
  {
    "model": "pc.dong",
    "pk": 424,
    "fields": {
      "name": "송천리",
      "si": 45,
      "doe": 2,
      "latitude": 37.0943154,
      "longitude": 127.4767138
    }
  },
  {
    "model": "pc.dong",
    "pk": 425,
    "fields": {
      "name": "석정동",
      "si": 45,
      "doe": 2,
      "latitude": 37.0087632,
      "longitude": 127.2616083
    }
  },
  {
    "model": "pc.dong",
    "pk": 426,
    "fields": {
      "name": "만정리",
      "si": 45,
      "doe": 2,
      "latitude": 37.0020195,
      "longitude": 127.1742878
    }
  },
  {
    "model": "pc.dong",
    "pk": 427,
    "fields": {
      "name": "죽산리",
      "si": 45,
      "doe": 2,
      "latitude": 37.0756247,
      "longitude": 127.4242072
    }
  },
  {
    "model": "pc.dong",
    "pk": 428,
    "fields": {
      "name": "금산동",
      "si": 45,
      "doe": 2,
      "latitude": 37.0123529,
      "longitude": 127.2663588
    }
  },
  {
    "model": "pc.dong",
    "pk": 429,
    "fields": {
      "name": "신건지동",
      "si": 45,
      "doe": 2,
      "latitude": 37.0137882,
      "longitude": 127.2544429
    }
  },
  {
    "model": "pc.dong",
    "pk": 430,
    "fields": {
      "name": "신양복리",
      "si": 45,
      "doe": 2,
      "latitude": 37.0098935,
      "longitude": 127.3259478
    }
  },
  {
    "model": "pc.dong",
    "pk": 431,
    "fields": {
      "name": "인지동",
      "si": 45,
      "doe": 2,
      "latitude": 37.0054631,
      "longitude": 127.2694798
    }
  },
  {
    "model": "pc.dong",
    "pk": 432,
    "fields": {
      "name": "관산동",
      "si": 46,
      "doe": 2,
      "latitude": 37.6878997,
      "longitude": 126.8649393
    }
  },
  {
    "model": "pc.dong",
    "pk": 433,
    "fields": {
      "name": "성사동",
      "si": 46,
      "doe": 2,
      "latitude": 37.6562245,
      "longitude": 126.8380612
    }
  },
  {
    "model": "pc.dong",
    "pk": 434,
    "fields": {
      "name": "화정동",
      "si": 46,
      "doe": 2,
      "latitude": 37.6348916,
      "longitude": 126.8323576
    }
  },
  {
    "model": "pc.dong",
    "pk": 435,
    "fields": {
      "name": "삼송동",
      "si": 46,
      "doe": 2,
      "latitude": 37.6475025,
      "longitude": 126.8842049
    }
  },
  {
    "model": "pc.dong",
    "pk": 436,
    "fields": {
      "name": "원흥동",
      "si": 46,
      "doe": 2,
      "latitude": 37.6348642,
      "longitude": 126.8712751
    }
  },
  {
    "model": "pc.dong",
    "pk": 437,
    "fields": {
      "name": "행신동",
      "si": 46,
      "doe": 2,
      "latitude": 37.6196915,
      "longitude": 126.8390578
    }
  },
  {
    "model": "pc.dong",
    "pk": 438,
    "fields": {
      "name": "토당동",
      "si": 46,
      "doe": 2,
      "latitude": 37.623794,
      "longitude": 126.8236381
    }
  },
  {
    "model": "pc.dong",
    "pk": 439,
    "fields": {
      "name": "신원동",
      "si": 46,
      "doe": 2,
      "latitude": 37.6629864,
      "longitude": 126.889971
    }
  },
  {
    "model": "pc.dong",
    "pk": 440,
    "fields": {
      "name": "고양동",
      "si": 46,
      "doe": 2,
      "latitude": 37.7063486,
      "longitude": 126.902587
    }
  },
  {
    "model": "pc.dong",
    "pk": 441,
    "fields": {
      "name": "주교동",
      "si": 46,
      "doe": 2,
      "latitude": 37.6585258,
      "longitude": 126.8359413
    }
  },
  {
    "model": "pc.dong",
    "pk": 442,
    "fields": {
      "name": "내유동",
      "si": 46,
      "doe": 2,
      "latitude": 37.7254861,
      "longitude": 126.843672
    }
  },
  {
    "model": "pc.dong",
    "pk": 443,
    "fields": {
      "name": "화전동",
      "si": 46,
      "doe": 2,
      "latitude": 37.60125,
      "longitude": 126.8709172
    }
  },
  {
    "model": "pc.dong",
    "pk": 444,
    "fields": {
      "name": "식사동",
      "si": 47,
      "doe": 2,
      "latitude": 37.6773078,
      "longitude": 126.8100526
    }
  },
  {
    "model": "pc.dong",
    "pk": 445,
    "fields": {
      "name": "마두동",
      "si": 47,
      "doe": 2,
      "latitude": 37.6559079,
      "longitude": 126.7863725
    }
  },
  {
    "model": "pc.dong",
    "pk": 446,
    "fields": {
      "name": "장항동",
      "si": 47,
      "doe": 2,
      "latitude": 37.6589136,
      "longitude": 126.7708309
    }
  },
  {
    "model": "pc.dong",
    "pk": 447,
    "fields": {
      "name": "중산동",
      "si": 47,
      "doe": 2,
      "latitude": 37.6894911,
      "longitude": 126.7802623
    }
  },
  {
    "model": "pc.dong",
    "pk": 448,
    "fields": {
      "name": "정발산동",
      "si": 47,
      "doe": 2,
      "latitude": 37.6729571,
      "longitude": 126.7766347
    }
  },
  {
    "model": "pc.dong",
    "pk": 449,
    "fields": {
      "name": "백석동",
      "si": 47,
      "doe": 2,
      "latitude": 37.645173,
      "longitude": 126.7884038
    }
  },
  {
    "model": "pc.dong",
    "pk": 450,
    "fields": {
      "name": "풍동",
      "si": 47,
      "doe": 2,
      "latitude": 37.6678653,
      "longitude": 126.7992096
    }
  },
  {
    "model": "pc.dong",
    "pk": 451,
    "fields": {
      "name": "일산동",
      "si": 48,
      "doe": 2,
      "latitude": 37.6833748,
      "longitude": 126.7722727
    }
  },
  {
    "model": "pc.dong",
    "pk": 452,
    "fields": {
      "name": "주엽동",
      "si": 48,
      "doe": 2,
      "latitude": 37.6720703,
      "longitude": 126.7601664
    }
  },
  {
    "model": "pc.dong",
    "pk": 453,
    "fields": {
      "name": "가좌동",
      "si": 48,
      "doe": 2,
      "latitude": 37.6892555,
      "longitude": 126.7208743
    }
  },
  {
    "model": "pc.dong",
    "pk": 454,
    "fields": {
      "name": "탄현동",
      "si": 48,
      "doe": 2,
      "latitude": 37.6923229,
      "longitude": 126.7645713
    }
  },
  {
    "model": "pc.dong",
    "pk": 455,
    "fields": {
      "name": "덕이동",
      "si": 48,
      "doe": 2,
      "latitude": 37.6976968,
      "longitude": 126.7498467
    }
  },
  {
    "model": "pc.dong",
    "pk": 456,
    "fields": {
      "name": "대화동",
      "si": 48,
      "doe": 2,
      "latitude": 37.6768939,
      "longitude": 126.7502992
    }
  },
  {
    "model": "pc.dong",
    "pk": 457,
    "fields": {
      "name": "별양동",
      "si": 49,
      "doe": 2,
      "latitude": 37.4277738,
      "longitude": 126.9928928
    }
  },
  {
    "model": "pc.dong",
    "pk": 458,
    "fields": {
      "name": "중앙동",
      "si": 49,
      "doe": 2,
      "latitude": 37.4287669,
      "longitude": 126.9909023
    }
  },
  {
    "model": "pc.dong",
    "pk": 459,
    "fields": {
      "name": "부림동",
      "si": 49,
      "doe": 2,
      "latitude": 37.4343611,
      "longitude": 126.9980151
    }
  },
  {
    "model": "pc.dong",
    "pk": 460,
    "fields": {
      "name": "수택동",
      "si": 50,
      "doe": 2,
      "latitude": 37.595402,
      "longitude": 127.1411181
    }
  },
  {
    "model": "pc.dong",
    "pk": 461,
    "fields": {
      "name": "토평동",
      "si": 50,
      "doe": 2,
      "latitude": 37.5907854,
      "longitude": 127.1476268
    }
  },
  {
    "model": "pc.dong",
    "pk": 462,
    "fields": {
      "name": "인창동",
      "si": 50,
      "doe": 2,
      "latitude": 37.6056448,
      "longitude": 127.1388747
    }
  },
  {
    "model": "pc.dong",
    "pk": 463,
    "fields": {
      "name": "교문동",
      "si": 50,
      "doe": 2,
      "latitude": 37.5958073,
      "longitude": 127.1351298
    }
  },
  {
    "model": "pc.dong",
    "pk": 464,
    "fields": {
      "name": "가운동",
      "si": 51,
      "doe": 2,
      "latitude": 37.6045265,
      "longitude": 127.1568568
    }
  },
  {
    "model": "pc.dong",
    "pk": 465,
    "fields": {
      "name": "퇴계원리",
      "si": 51,
      "doe": 2,
      "latitude": 37.65199,
      "longitude": 127.1434277
    }
  },
  {
    "model": "pc.dong",
    "pk": 466,
    "fields": {
      "name": "마석우리",
      "si": 51,
      "doe": 2,
      "latitude": 37.6561913,
      "longitude": 127.3038716
    }
  },
  {
    "model": "pc.dong",
    "pk": 467,
    "fields": {
      "name": "도농동",
      "si": 51,
      "doe": 2,
      "latitude": 37.6075115,
      "longitude": 127.1562235
    }
  },
  {
    "model": "pc.dong",
    "pk": 468,
    "fields": {
      "name": "오남리",
      "si": 51,
      "doe": 2,
      "latitude": 37.6824192,
      "longitude": 127.2105048
    }
  },
  {
    "model": "pc.dong",
    "pk": 469,
    "fields": {
      "name": "사능리",
      "si": 51,
      "doe": 2,
      "latitude": 37.6563852,
      "longitude": 127.1823205
    }
  },
  {
    "model": "pc.dong",
    "pk": 470,
    "fields": {
      "name": "평내동",
      "si": 51,
      "doe": 2,
      "latitude": 37.6462742,
      "longitude": 127.2382676
    }
  },
  {
    "model": "pc.dong",
    "pk": 471,
    "fields": {
      "name": "부평리",
      "si": 51,
      "doe": 2,
      "latitude": 37.7420596,
      "longitude": 127.1986766
    }
  },
  {
    "model": "pc.dong",
    "pk": 472,
    "fields": {
      "name": "금곡리",
      "si": 51,
      "doe": 2,
      "latitude": 37.717518,
      "longitude": 127.1989104
    }
  },
  {
    "model": "pc.dong",
    "pk": 473,
    "fields": {
      "name": "덕소리",
      "si": 51,
      "doe": 2,
      "latitude": 37.5851423,
      "longitude": 127.2134759
    }
  },
  {
    "model": "pc.dong",
    "pk": 474,
    "fields": {
      "name": "창현리",
      "si": 51,
      "doe": 2,
      "latitude": 37.6500435,
      "longitude": 127.3045687
    }
  },
  {
    "model": "pc.dong",
    "pk": 475,
    "fields": {
      "name": "호평동",
      "si": 51,
      "doe": 2,
      "latitude": 37.656306,
      "longitude": 127.2451428
    }
  },
  {
    "model": "pc.dong",
    "pk": 476,
    "fields": {
      "name": "청학리",
      "si": 51,
      "doe": 2,
      "latitude": 37.7083568,
      "longitude": 127.1177493
    }
  },
  {
    "model": "pc.dong",
    "pk": 477,
    "fields": {
      "name": "도곡리",
      "si": 51,
      "doe": 2,
      "latitude": 37.5794203,
      "longitude": 127.2213369
    }
  },
  {
    "model": "pc.dong",
    "pk": 478,
    "fields": {
      "name": "금곡동",
      "si": 51,
      "doe": 2,
      "latitude": 37.6325602,
      "longitude": 127.2065939
    }
  },
  {
    "model": "pc.dong",
    "pk": 479,
    "fields": {
      "name": "양지리",
      "si": 51,
      "doe": 2,
      "latitude": 37.6983111,
      "longitude": 127.2032926
    }
  },
  {
    "model": "pc.dong",
    "pk": 480,
    "fields": {
      "name": "별내동",
      "si": 51,
      "doe": 2,
      "latitude": 37.6592545,
      "longitude": 127.1177741
    }
  },
  {
    "model": "pc.dong",
    "pk": 481,
    "fields": {
      "name": "장현리",
      "si": 51,
      "doe": 2,
      "latitude": 37.719885,
      "longitude": 127.1856102
    }
  },
  {
    "model": "pc.dong",
    "pk": 482,
    "fields": {
      "name": "묵현리",
      "si": 51,
      "doe": 2,
      "latitude": 37.6582111,
      "longitude": 127.2739959
    }
  },
  {
    "model": "pc.dong",
    "pk": 483,
    "fields": {
      "name": "용정리",
      "si": 51,
      "doe": 2,
      "latitude": 37.6588764,
      "longitude": 127.1759379
    }
  },
  {
    "model": "pc.dong",
    "pk": 484,
    "fields": {
      "name": "내각리",
      "si": 51,
      "doe": 2,
      "latitude": 37.7044725,
      "longitude": 127.1665353
    }
  },
  {
    "model": "pc.dong",
    "pk": 485,
    "fields": {
      "name": "오산동",
      "si": 52,
      "doe": 2,
      "latitude": 37.150337,
      "longitude": 127.0727434
    }
  },
  {
    "model": "pc.dong",
    "pk": 486,
    "fields": {
      "name": "양산동",
      "si": 52,
      "doe": 2,
      "latitude": 37.1956555,
      "longitude": 127.0232249
    }
  },
  {
    "model": "pc.dong",
    "pk": 487,
    "fields": {
      "name": "궐동",
      "si": 52,
      "doe": 2,
      "latitude": 37.1580561,
      "longitude": 127.0578121
    }
  },
  {
    "model": "pc.dong",
    "pk": 488,
    "fields": {
      "name": "원동",
      "si": 52,
      "doe": 2,
      "latitude": 37.1451793,
      "longitude": 127.0718819
    }
  },
  {
    "model": "pc.dong",
    "pk": 489,
    "fields": {
      "name": "금암동",
      "si": 52,
      "doe": 2,
      "latitude": 37.1748391,
      "longitude": 127.0506845
    }
  },
  {
    "model": "pc.dong",
    "pk": 490,
    "fields": {
      "name": "은계동",
      "si": 52,
      "doe": 2,
      "latitude": 37.1589802,
      "longitude": 127.0711587
    }
  },
  {
    "model": "pc.dong",
    "pk": 491,
    "fields": {
      "name": "갈곶동",
      "si": 52,
      "doe": 2,
      "latitude": 37.131742,
      "longitude": 127.0686151
    }
  },
  {
    "model": "pc.dong",
    "pk": 492,
    "fields": {
      "name": "청호동",
      "si": 52,
      "doe": 2,
      "latitude": 37.1318206,
      "longitude": 127.0838971
    }
  },
  {
    "model": "pc.dong",
    "pk": 493,
    "fields": {
      "name": "내삼미동",
      "si": 52,
      "doe": 2,
      "latitude": 37.1733195,
      "longitude": 127.0595059
    }
  },
  {
    "model": "pc.dong",
    "pk": 494,
    "fields": {
      "name": "누읍동",
      "si": 52,
      "doe": 2,
      "latitude": 37.1411207,
      "longitude": 127.0477737
    }
  },
  {
    "model": "pc.dong",
    "pk": 495,
    "fields": {
      "name": "수청동",
      "si": 52,
      "doe": 2,
      "latitude": 37.1680741,
      "longitude": 127.0594354
    }
  },
  {
    "model": "pc.dong",
    "pk": 496,
    "fields": {
      "name": "신천동",
      "si": 53,
      "doe": 2,
      "latitude": 37.4386603,
      "longitude": 126.7854188
    }
  },
  {
    "model": "pc.dong",
    "pk": 497,
    "fields": {
      "name": "능곡동",
      "si": 53,
      "doe": 2,
      "latitude": 37.3689366,
      "longitude": 126.8111062
    }
  },
  {
    "model": "pc.dong",
    "pk": 498,
    "fields": {
      "name": "정왕동",
      "si": 53,
      "doe": 2,
      "latitude": 37.3476307,
      "longitude": 126.7389342
    }
  },
  {
    "model": "pc.dong",
    "pk": 499,
    "fields": {
      "name": "포동",
      "si": 53,
      "doe": 2,
      "latitude": 37.4069513,
      "longitude": 126.7844412
    }
  },
  {
    "model": "pc.dong",
    "pk": 500,
    "fields": {
      "name": "은행동",
      "si": 53,
      "doe": 2,
      "latitude": 37.4401884,
      "longitude": 126.7969432
    }
  },
  {
    "model": "pc.dong",
    "pk": 501,
    "fields": {
      "name": "하중동",
      "si": 53,
      "doe": 2,
      "latitude": 37.3951934,
      "longitude": 126.8038405
    }
  },
  {
    "model": "pc.dong",
    "pk": 502,
    "fields": {
      "name": "거모동",
      "si": 53,
      "doe": 2,
      "latitude": 37.3430356,
      "longitude": 126.7842291
    }
  },
  {
    "model": "pc.dong",
    "pk": 503,
    "fields": {
      "name": "대야동",
      "si": 53,
      "doe": 2,
      "latitude": 37.4447543,
      "longitude": 126.791895
    }
  },
  {
    "model": "pc.dong",
    "pk": 504,
    "fields": {
      "name": "장현동",
      "si": 53,
      "doe": 2,
      "latitude": 37.3811537,
      "longitude": 126.8022587
    }
  },
  {
    "model": "pc.dong",
    "pk": 505,
    "fields": {
      "name": "매화동",
      "si": 53,
      "doe": 2,
      "latitude": 37.4153597,
      "longitude": 126.8132547
    }
  },
  {
    "model": "pc.dong",
    "pk": 506,
    "fields": {
      "name": "장곡동",
      "si": 53,
      "doe": 2,
      "latitude": 37.3780347,
      "longitude": 126.7847117
    }
  },
  {
    "model": "pc.dong",
    "pk": 507,
    "fields": {
      "name": "월곶동",
      "si": 53,
      "doe": 2,
      "latitude": 37.3888834,
      "longitude": 126.739237
    }
  },
  {
    "model": "pc.dong",
    "pk": 508,
    "fields": {
      "name": "조남동",
      "si": 53,
      "doe": 2,
      "latitude": 37.3831057,
      "longitude": 126.8594953
    }
  },
  {
    "model": "pc.dong",
    "pk": 509,
    "fields": {
      "name": "산본동",
      "si": 54,
      "doe": 2,
      "latitude": 37.3642648,
      "longitude": 126.9336112
    }
  },
  {
    "model": "pc.dong",
    "pk": 510,
    "fields": {
      "name": "금정동",
      "si": 54,
      "doe": 2,
      "latitude": 37.3617038,
      "longitude": 126.9402041
    }
  },
  {
    "model": "pc.dong",
    "pk": 511,
    "fields": {
      "name": "당동",
      "si": 54,
      "doe": 2,
      "latitude": 37.3499212,
      "longitude": 126.9451475
    }
  },
  {
    "model": "pc.dong",
    "pk": 512,
    "fields": {
      "name": "당정동",
      "si": 54,
      "doe": 2,
      "latitude": 37.3457078,
      "longitude": 126.9517693
    }
  },
  {
    "model": "pc.dong",
    "pk": 513,
    "fields": {
      "name": "부곡동",
      "si": 54,
      "doe": 2,
      "latitude": 37.3218284,
      "longitude": 126.9441592
    }
  },
  {
    "model": "pc.dong",
    "pk": 514,
    "fields": {
      "name": "삼동",
      "si": 55,
      "doe": 2,
      "latitude": 37.31987,
      "longitude": 126.9517531
    }
  },
  {
    "model": "pc.dong",
    "pk": 515,
    "fields": {
      "name": "오전동",
      "si": 55,
      "doe": 2,
      "latitude": 37.3591291,
      "longitude": 126.9679593
    }
  },
  {
    "model": "pc.dong",
    "pk": 516,
    "fields": {
      "name": "내손동",
      "si": 55,
      "doe": 2,
      "latitude": 37.3838778,
      "longitude": 126.9772912
    }
  },
  {
    "model": "pc.dong",
    "pk": 517,
    "fields": {
      "name": "포일동",
      "si": 55,
      "doe": 2,
      "latitude": 37.3947414,
      "longitude": 126.983313
    }
  },
  {
    "model": "pc.dong",
    "pk": 518,
    "fields": {
      "name": "왕곡동",
      "si": 55,
      "doe": 2,
      "latitude": 37.3463596,
      "longitude": 126.9769641
    }
  },
  {
    "model": "pc.dong",
    "pk": 519,
    "fields": {
      "name": "고천동",
      "si": 55,
      "doe": 2,
      "latitude": 37.349212,
      "longitude": 126.9726453
    }
  },
  {
    "model": "pc.dong",
    "pk": 520,
    "fields": {
      "name": "청계동",
      "si": 55,
      "doe": 2,
      "latitude": 37.3898154,
      "longitude": 126.9947153
    }
  },
  {
    "model": "pc.dong",
    "pk": 521,
    "fields": {
      "name": "덕풍동",
      "si": 56,
      "doe": 2,
      "latitude": 37.5438944,
      "longitude": 127.2038254
    }
  },
  {
    "model": "pc.dong",
    "pk": 522,
    "fields": {
      "name": "신장동",
      "si": 56,
      "doe": 2,
      "latitude": 37.5388598,
      "longitude": 127.2111795
    }
  },
  {
    "model": "pc.dong",
    "pk": 523,
    "fields": {
      "name": "마송리",
      "si": 57,
      "doe": 2,
      "latitude": 37.6903317,
      "longitude": 126.5989187
    }
  },
  {
    "model": "pc.dong",
    "pk": 524,
    "fields": {
      "name": "사우동",
      "si": 57,
      "doe": 2,
      "latitude": 37.6210882,
      "longitude": 126.7178933
    }
  },
  {
    "model": "pc.dong",
    "pk": 525,
    "fields": {
      "name": "장기동",
      "si": 57,
      "doe": 2,
      "latitude": 37.6443029,
      "longitude": 126.6702377
    }
  },
  {
    "model": "pc.dong",
    "pk": 526,
    "fields": {
      "name": "운양동",
      "si": 57,
      "doe": 2,
      "latitude": 37.6541506,
      "longitude": 126.6825794
    }
  },
  {
    "model": "pc.dong",
    "pk": 527,
    "fields": {
      "name": "구래동",
      "si": 57,
      "doe": 2,
      "latitude": 37.6446907,
      "longitude": 126.6269927
    }
  },
  {
    "model": "pc.dong",
    "pk": 528,
    "fields": {
      "name": "양곡리",
      "si": 57,
      "doe": 2,
      "latitude": 37.6553892,
      "longitude": 126.6270459
    }
  },
  {
    "model": "pc.dong",
    "pk": 529,
    "fields": {
      "name": "서암리",
      "si": 57,
      "doe": 2,
      "latitude": 37.6901717,
      "longitude": 126.6006865
    }
  },
  {
    "model": "pc.dong",
    "pk": 530,
    "fields": {
      "name": "풍무동",
      "si": 57,
      "doe": 2,
      "latitude": 37.6032221,
      "longitude": 126.7215292
    }
  },
  {
    "model": "pc.dong",
    "pk": 531,
    "fields": {
      "name": "감정동",
      "si": 57,
      "doe": 2,
      "latitude": 37.6241608,
      "longitude": 126.7007272
    }
  },
  {
    "model": "pc.dong",
    "pk": 532,
    "fields": {
      "name": "신곡리",
      "si": 57,
      "doe": 2,
      "latitude": 37.6031408,
      "longitude": 126.7705031
    }
  },
  {
    "model": "pc.dong",
    "pk": 533,
    "fields": {
      "name": "북변동",
      "si": 57,
      "doe": 2,
      "latitude": 37.6276597,
      "longitude": 126.7060759
    }
  },
  {
    "model": "pc.dong",
    "pk": 534,
    "fields": {
      "name": "마곡리",
      "si": 57,
      "doe": 2,
      "latitude": 37.7176997,
      "longitude": 126.6321089
    }
  },
  {
    "model": "pc.dong",
    "pk": 535,
    "fields": {
      "name": "둔전리",
      "si": 58,
      "doe": 2,
      "latitude": 37.2693336,
      "longitude": 127.2174111
    }
  },
  {
    "model": "pc.dong",
    "pk": 536,
    "fields": {
      "name": "역북동",
      "si": 58,
      "doe": 2,
      "latitude": 37.2339576,
      "longitude": 127.1890619
    }
  },
  {
    "model": "pc.dong",
    "pk": 537,
    "fields": {
      "name": "천리",
      "si": 58,
      "doe": 2,
      "latitude": 37.1943931,
      "longitude": 127.2062595
    }
  },
  {
    "model": "pc.dong",
    "pk": 538,
    "fields": {
      "name": "왕산리",
      "si": 58,
      "doe": 2,
      "latitude": 37.3351288,
      "longitude": 127.2527196
    }
  },
  {
    "model": "pc.dong",
    "pk": 539,
    "fields": {
      "name": "양지리",
      "si": 58,
      "doe": 2,
      "latitude": 37.234274,
      "longitude": 127.2847541
    }
  },
  {
    "model": "pc.dong",
    "pk": 540,
    "fields": {
      "name": "송전리",
      "si": 58,
      "doe": 2,
      "latitude": 37.1404558,
      "longitude": 127.1962607
    }
  },
  {
    "model": "pc.dong",
    "pk": 541,
    "fields": {
      "name": "김량장동",
      "si": 58,
      "doe": 2,
      "latitude": 37.2347333,
      "longitude": 127.2052865
    }
  },
  {
    "model": "pc.dong",
    "pk": 542,
    "fields": {
      "name": "남동",
      "si": 58,
      "doe": 2,
      "latitude": 37.2251582,
      "longitude": 127.1873237
    }
  },
  {
    "model": "pc.dong",
    "pk": 543,
    "fields": {
      "name": "마평동",
      "si": 58,
      "doe": 2,
      "latitude": 37.2342098,
      "longitude": 127.2134139
    }
  },
  {
    "model": "pc.dong",
    "pk": 544,
    "fields": {
      "name": "고당리",
      "si": 58,
      "doe": 2,
      "latitude": 37.1645259,
      "longitude": 127.3106305
    }
  },