[
  {
    "name": "두정역",
    "region": "SE",
    "longitude": 127.14896,
    "pcbang_count": 12,
    "latitude": 36.833705,
    "line": "1",
    "id": 1
  },
  {
    "name": "천안역",
    "region": "SE",
    "longitude": 127.146826,
    "pcbang_count": 23,
    "latitude": 36.810005,
    "line": "1",
    "id": 2
  },
  {
    "name": "인천역",
    "region": "SE",
    "longitude": 126.616936,
    "pcbang_count": 4,
    "latitude": 37.476691,
    "line": "1",
    "id": 3
  },
  {
    "name": "서울역",
    "region": "SE",
    "longitude": 126.972559,
    "pcbang_count": 9,
    "latitude": 37.554648,
    "line": "1",
    "id": 4
  },
  {
    "name": "시청역",
    "region": "SE",
    "longitude": 126.977108,
    "pcbang_count": 8,
    "latitude": 37.564718,
    "line": "1",
    "id": 5
  },
  {
    "name": "종각역",
    "region": "SE",
    "longitude": 126.982923,
    "pcbang_count": 11,
    "latitude": 37.570161,
    "line": "1",
    "id": 6
  },
  {
    "name": "종로3가역",
    "region": "SE",
    "longitude": 126.991806,
    "pcbang_count": 7,
    "latitude": 37.571607,
    "line": "1",
    "id": 7
  },
  {
    "name": "종로5가역",
    "region": "SE",
    "longitude": 127.001849,
    "pcbang_count": 8,
    "latitude": 37.570926,
    "line": "1",
    "id": 8
  },
  {
    "name": "동대문역",
    "region": "SE",
    "longitude": 127.009745,
    "pcbang_count": 18,
    "latitude": 37.57142,
    "line": "1",
    "id": 9
  },
  {
    "name": "신설동역",
    "region": "SE",
    "longitude": 127.025087,
    "pcbang_count": 18,
    "latitude": 37.575297,
    "line": "1",
    "id": 10
  },
  {
    "name": "제기동역",
    "region": "SE",
    "longitude": 127.034893,
    "pcbang_count": 19,
    "latitude": 37.578103,
    "line": "1",
    "id": 11
  },
  {
    "name": "청량리역",
    "region": "SE",
    "longitude": 127.046835,
    "pcbang_count": 22,
    "latitude": 37.580178,
    "line": "1",
    "id": 12
  },
  {
    "name": "동묘앞역",
    "region": "SE",
    "longitude": 127.016429,
    "pcbang_count": 18,
    "latitude": 37.572627,
    "line": "1",
    "id": 13
  },
  {
    "name": "남영역",
    "region": "SE",
    "longitude": 126.9713,
    "pcbang_count": 17,
    "latitude": 37.541021,
    "line": "1",
    "id": 14
  },
  {
    "name": "용산역",
    "region": "SE",
    "longitude": 126.964561,
    "pcbang_count": 8,
    "latitude": 37.529849,
    "line": "1",
    "id": 15
  },
  {
    "name": "노량진역",
    "region": "SE",
    "longitude": 126.942454,
    "pcbang_count": 35,
    "latitude": 37.514219,
    "line": "1",
    "id": 16
  },
  {
    "name": "대방역",
    "region": "SE",
    "longitude": 126.926382,
    "pcbang_count": 18,
    "latitude": 37.513342,
    "line": "1",
    "id": 17
  },
  {
    "name": "영등포역",
    "region": "SE",
    "longitude": 126.907628,
    "pcbang_count": 14,
    "latitude": 37.515504,
    "line": "1",
    "id": 18
  },
  {
    "name": "회기역",
    "region": "SE",
    "longitude": 127.057583,
    "pcbang_count": 27,
    "latitude": 37.58946,
    "line": "1",
    "id": 19
  },
  {
    "name": "외대앞역",
    "region": "SE",
    "longitude": 127.063549,
    "pcbang_count": 23,
    "latitude": 37.596073,
    "line": "1",
    "id": 20
  },
  {
    "name": "방학역",
    "region": "SE",
    "longitude": 127.044273,
    "pcbang_count": 22,
    "latitude": 37.667503,
    "line": "1",
    "id": 21
  },
  {
    "name": "도봉역",
    "region": "SE",
    "longitude": 127.045595,
    "pcbang_count": 12,
    "latitude": 37.679563,
    "line": "1",
    "id": 22
  },
  {
    "name": "도봉산역",
    "region": "SE",
    "longitude": 127.046222,
    "pcbang_count": 3,
    "latitude": 37.689313,
    "line": "1",
    "id": 23
  },
  {
    "name": "회룡역",
    "region": "SE",
    "longitude": 127.046895,
    "pcbang_count": 14,
    "latitude": 37.724846,
    "line": "1",
    "id": 24
  },
  {
    "name": "의정부역",
    "region": "SE",
    "longitude": 127.045958,
    "pcbang_count": 27,
    "latitude": 37.738415,
    "line": "1",
    "id": 25
  },
  {
    "name": "가능역",
    "region": "SE",
    "longitude": 127.044213,
    "pcbang_count": 17,
    "latitude": 37.748577,
    "line": "1",
    "id": 26
  },
  {
    "name": "녹양역",
    "region": "SE",
    "longitude": 127.042292,
    "pcbang_count": 9,
    "latitude": 37.75938,
    "line": "1",
    "id": 27
  },
  {
    "name": "양주역",
    "region": "SE",
    "longitude": 127.044708,
    "pcbang_count": 0,
    "latitude": 37.774381,
    "line": "1",
    "id": 28
  },
  {
    "name": "덕계역",
    "region": "SE",
    "longitude": 127.056486,
    "pcbang_count": 1,
    "latitude": 37.818486,
    "line": "1",
    "id": 29
  },
  {
    "name": "덕정역",
    "region": "SE",
    "longitude": 127.061277,
    "pcbang_count": 4,
    "latitude": 37.843188,
    "line": "1",
    "id": 30
  },
  {
    "name": "지행역",
    "region": "SE",
    "longitude": 127.055716,
    "pcbang_count": 16,
    "latitude": 37.892334,
    "line": "1",
    "id": 31
  },
  {
    "name": "보산역",
    "region": "SE",
    "longitude": 127.057277,
    "pcbang_count": 5,
    "latitude": 37.913702,
    "line": "1",
    "id": 32
  },
  {
    "name": "동두천역",
    "region": "SE",
    "longitude": 127.05479,
    "pcbang_count": 0,
    "latitude": 37.927878,
    "line": "1",
    "id": 33
  },
  {
    "name": "소요산역",
    "region": "SE",
    "longitude": 127.061034,
    "pcbang_count": 0,
    "latitude": 37.9481,
    "line": "1",
    "id": 34
  },
  {
    "name": "석계역",
    "region": "SE",
    "longitude": 127.065851,
    "pcbang_count": 19,
    "latitude": 37.614805,
    "line": "1",
    "id": 35
  },
  {
    "name": "광운대역",
    "region": "SE",
    "longitude": 127.061835,
    "pcbang_count": 16,
    "latitude": 37.623632,
    "line": "1",
    "id": 36
  },
  {
    "name": "월계역",
    "region": "SE",
    "longitude": 127.058831,
    "pcbang_count": 6,
    "latitude": 37.633212,
    "line": "1",
    "id": 37
  },
  {
    "name": "녹천역",
    "region": "SE",
    "longitude": 127.051269,
    "pcbang_count": 10,
    "latitude": 37.644799,
    "line": "1",
    "id": 38
  },
  {
    "name": "신길역",
    "region": "SE",
    "longitude": 126.917169,
    "pcbang_count": 15,
    "latitude": 37.517122,
    "line": "1",
    "id": 39
  },
  {
    "name": "봉명역",
    "region": "SE",
    "longitude": 127.135763,
    "pcbang_count": 17,
    "latitude": 36.801215,
    "line": "1",
    "id": 40
  },
  {
    "name": "쌍용역",
    "region": "SE",
    "longitude": 127.1214,
    "pcbang_count": 22,
    "latitude": 36.793759,
    "line": "1",
    "id": 41
  },
  {
    "name": "배방역",
    "region": "SE",
    "longitude": 127.052991,
    "pcbang_count": 4,
    "latitude": 36.777629,
    "line": "1",
    "id": 42
  },
  {
    "name": "온양온천역",
    "region": "SE",
    "longitude": 127.003249,
    "pcbang_count": 22,
    "latitude": 36.780483,
    "line": "1",
    "id": 43
  },
  {
    "name": "구로역",
    "region": "SE",
    "longitude": 126.881966,
    "pcbang_count": 14,
    "latitude": 37.503039,
    "line": "1",
    "id": 44
  },
  {
    "name": "가산디지털단지역",
    "region": "SE",
    "longitude": 126.882343,
    "pcbang_count": 17,
    "latitude": 37.481072,
    "line": "1",
    "id": 45
  },
  {
    "name": "금천구청역",
    "region": "SE",
    "longitude": 126.89398,
    "pcbang_count": 18,
    "latitude": 37.455626,
    "line": "1",
    "id": 46
  },
  {
    "name": "석수역",
    "region": "SE",
    "longitude": 126.902295,
    "pcbang_count": 3,
    "latitude": 37.435047,
    "line": "1",
    "id": 47
  },
  {
    "name": "안양역",
    "region": "SE",
    "longitude": 126.922874,
    "pcbang_count": 22,
    "latitude": 37.401592,
    "line": "1",
    "id": 48
  },
  {
    "name": "명학역",
    "region": "SE",
    "longitude": 126.935433,
    "pcbang_count": 9,
    "latitude": 37.384653,
    "line": "1",
    "id": 49
  },
  {
    "name": "군포역",
    "region": "SE",
    "longitude": 126.948462,
    "pcbang_count": 16,
    "latitude": 37.35356,
    "line": "1",
    "id": 50
  },
  {
    "name": "의왕역",
    "region": "SE",
    "longitude": 126.948217,
    "pcbang_count": 7,
    "latitude": 37.320852,
    "line": "1",
    "id": 51
  },
  {
    "name": "성균관대역",
    "region": "SE",
    "longitude": 126.97075,
    "pcbang_count": 10,
    "latitude": 37.300349,
    "line": "1",
    "id": 52
  },
  {
    "name": "수원역",
    "region": "SE",
    "longitude": 126.999874,
    "pcbang_count": 11,
    "latitude": 37.265974,
    "line": "1",
    "id": 53
  },
  {
    "name": "독산역",
    "region": "SE",
    "longitude": 126.889249,
    "pcbang_count": 12,
    "latitude": 37.466613,
    "line": "1",
    "id": 54
  },
  {
    "name": "세류역",
    "region": "SE",
    "longitude": 127.013222,
    "pcbang_count": 6,
    "latitude": 37.245025,
    "line": "1",
    "id": 55
  },
  {
    "name": "병점역",
    "region": "SE",
    "longitude": 127.032731,
    "pcbang_count": 15,
    "latitude": 37.207503,
    "line": "1",
    "id": 56
  },
  {
    "name": "세마역",
    "region": "SE",
    "longitude": 127.04318,
    "pcbang_count": 0,
    "latitude": 37.187533,
    "line": "1",
    "id": 57
  },
  {
    "name": "오산대역",
    "region": "SE",
    "longitude": 127.063197,
    "pcbang_count": 6,
    "latitude": 37.168953,
    "line": "1",
    "id": 58
  },
  {
    "name": "오산역",
    "region": "SE",
    "longitude": 127.06672,
    "pcbang_count": 18,
    "latitude": 37.145885,
    "line": "1",
    "id": 59
  },
  {
    "name": "진위역",
    "region": "SE",
    "longitude": 127.062278,
    "pcbang_count": 0,
    "latitude": 37.109447,
    "line": "1",
    "id": 60
  },
  {
    "name": "송탄역",
    "region": "SE",
    "longitude": 127.054301,
    "pcbang_count": 16,
    "latitude": 37.075696,
    "line": "1",
    "id": 61
  },
  {
    "name": "서정리역",
    "region": "SE",
    "longitude": 127.052819,
    "pcbang_count": 8,
    "latitude": 37.056496,
    "line": "1",
    "id": 62
  },
  {
    "name": "지제역",
    "region": "SE",
    "longitude": 127.070444,
    "pcbang_count": 0,
    "latitude": 37.0188,
    "line": "1",
    "id": 63
  },
  {
    "name": "평택역",
    "region": "SE",
    "longitude": 127.085159,
    "pcbang_count": 19,
    "latitude": 36.990726,
    "line": "1",
    "id": 64
  },
  {
    "name": "성환역",
    "region": "SE",
    "longitude": 127.126964,
    "pcbang_count": 3,
    "latitude": 36.916076,
    "line": "1",
    "id": 65
  },
  {
    "name": "직산역",
    "region": "SE",
    "longitude": 127.143904,
    "pcbang_count": 1,
    "latitude": 36.870593,
    "line": "1",
    "id": 66
  },
  {
    "name": "당정역",
    "region": "SE",
    "longitude": 126.948345,
    "pcbang_count": 16,
    "latitude": 37.344285,
    "line": "1",
    "id": 67
  },
  {
    "name": "서동탄역",
    "region": "SE",
    "longitude": 127.051672,
    "pcbang_count": 2,
    "latitude": 37.195504,
    "line": "1",
    "id": 68
  },
  {
    "name": "광명역",
    "region": "SE",
    "longitude": 126.884466,
    "pcbang_count": 0,
    "latitude": 37.416182,
    "line": "1",
    "id": 69
  },
  {
    "name": "개봉역",
    "region": "SE",
    "longitude": 126.85868,
    "pcbang_count": 26,
    "latitude": 37.494594,
    "line": "1",
    "id": 70
  },
  {
    "name": "오류동역",
    "region": "SE",
    "longitude": 126.845365,
    "pcbang_count": 23,
    "latitude": 37.494526,
    "line": "1",
    "id": 71
  },
  {
    "name": "역곡역",
    "region": "SE",
    "longitude": 126.823457,
    "pcbang_count": 10,
    "latitude": 37.492159,
    "line": "1",
    "id": 72
  },
  {
    "name": "부천역",
    "region": "SE",
    "longitude": 126.782686,
    "pcbang_count": 33,
    "latitude": 37.48405,
    "line": "1",
    "id": 73
  },
  {
    "name": "송내역",
    "region": "SE",
    "longitude": 126.753664,
    "pcbang_count": 15,
    "latitude": 37.4876,
    "line": "1",
    "id": 74
  },
  {
    "name": "부평역",
    "region": "SE",
    "longitude": 126.724805,
    "pcbang_count": 25,
    "latitude": 37.489493,
    "line": "1",
    "id": 75
  },
  {
    "name": "백운역",
    "region": "SE",
    "longitude": 126.707704,
    "pcbang_count": 8,
    "latitude": 37.483664,
    "line": "1",
    "id": 76
  },
  {
    "name": "동암역",
    "region": "SE",
    "longitude": 126.702896,
    "pcbang_count": 23,
    "latitude": 37.471408,
    "line": "1",
    "id": 77
  },
  {
    "name": "주안역",
    "region": "SE",
    "longitude": 126.679923,
    "pcbang_count": 22,
    "latitude": 37.464941,
    "line": "1",
    "id": 78
  },
  {
    "name": "제물포역",
    "region": "SE",
    "longitude": 126.656666,
    "pcbang_count": 10,
    "latitude": 37.466769,
    "line": "1",
    "id": 79
  },
  {
    "name": "동인천역",
    "region": "SE",
    "longitude": 126.632802,
    "pcbang_count": 15,
    "latitude": 37.475276,
    "line": "1",
    "id": 80
  },
  {
    "name": "구일역",
    "region": "SE",
    "longitude": 126.870793,
    "pcbang_count": 13,
    "latitude": 37.496756,
    "line": "1",
    "id": 81
  },
  {
    "name": "소사역",
    "region": "SE",
    "longitude": 126.79544,
    "pcbang_count": 15,
    "latitude": 37.482753,
    "line": "1",
    "id": 82
  },
  {
    "name": "부개역",
    "region": "SE",
    "longitude": 126.74109,
    "pcbang_count": 17,
    "latitude": 37.488418,
    "line": "1",
    "id": 83
  },
  {
    "name": "간석역",
    "region": "SE",
    "longitude": 126.694181,
    "pcbang_count": 26,
    "latitude": 37.464737,
    "line": "1",
    "id": 84
  },
  {
    "name": "도원역",
    "region": "SE",
    "longitude": 126.642706,
    "pcbang_count": 13,
    "latitude": 37.468446,
    "line": "1",
    "id": 85
  },
  {
    "name": "온수역",
    "region": "SE",
    "longitude": 126.823457,
    "pcbang_count": 10,
    "latitude": 37.492159,
    "line": "1",
    "id": 86
  },
  {
    "name": "중동역",
    "region": "SE",
    "longitude": 126.764843,
    "pcbang_count": 23,
    "latitude": 37.486562,
    "line": "1",
    "id": 87
  },
  {
    "name": "도화역",
    "region": "SE",
    "longitude": 126.668672,
    "pcbang_count": 17,
    "latitude": 37.46607,
    "line": "1",
    "id": 88
  },
  {
    "name": "신이문역",
    "region": "SE",
    "longitude": 127.067325,
    "pcbang_count": 23,
    "latitude": 37.601854,
    "line": "1",
    "id": 89
  },
  {
    "name": "아산역",
    "region": "SE",
    "longitude": 127.104361,
    "pcbang_count": 1,
    "latitude": 36.792053,
    "line": "1",
    "id": 90
  },
  {
    "name": "신창역",
    "region": "SE",
    "longitude": 126.951108,
    "pcbang_count": 0,
    "latitude": 36.769502,
    "line": "1",
    "id": 91
  },
  {
    "name": "관악역",
    "region": "SE",
    "longitude": 126.908706,
    "pcbang_count": 6,
    "latitude": 37.419232,
    "line": "1",
    "id": 92
  },
  {
    "name": "화서역",
    "region": "SE",
    "longitude": 126.989627,
    "pcbang_count": 9,
    "latitude": 37.283862,
    "line": "1",
    "id": 93
  },
  {
    "name": "망월사역",
    "region": "SE",
    "longitude": 127.047455,
    "pcbang_count": 4,
    "latitude": 37.709914,
    "line": "1",
    "id": 94
  },
  {
    "name": "동두천중앙역",
    "region": "SE",
    "longitude": 127.056482,
    "pcbang_count": 9,
    "latitude": 37.901885,
    "line": "1",
    "id": 95
  },
  {
    "name": "건대입구역",
    "region": "SE",
    "longitude": 127.07023,
    "pcbang_count": 29,
    "latitude": 37.540693,
    "line": "2",
    "id": 96
  },
  {
    "name": "구의역",
    "region": "SE",
    "longitude": 127.085916,
    "pcbang_count": 26,
    "latitude": 37.537077,
    "line": "2",
    "id": 97
  },
  {
    "name": "강변역",
    "region": "SE",
    "longitude": 127.094681,
    "pcbang_count": 16,
    "latitude": 37.535095,
    "line": "2",
    "id": 98
  },
  {
    "name": "잠실나루역",
    "region": "SE",
    "longitude": 127.10379,
    "pcbang_count": 4,
    "latitude": 37.520733,
    "line": "2",
    "id": 99
  },
  {
    "name": "잠실역",
    "region": "SE",
    "longitude": 127.102234,
    "pcbang_count": 11,
    "latitude": 37.51395,
    "line": "2",
    "id": 100
  },
  {
    "name": "신천역",
    "region": "SE",
    "longitude": 127.086162,
    "pcbang_count": 19,
    "latitude": 37.511687,
    "line": "2",
    "id": 101
  },
  {
    "name": "종합운동장역",
    "region": "SE",
    "longitude": 127.073642,
    "pcbang_count": 10,
    "latitude": 37.510997,
    "line": "2",
    "id": 102
  },
  {
    "name": "삼성역",
    "region": "SE",
    "longitude": 127.06316,
    "pcbang_count": 12,
    "latitude": 37.508844,
    "line": "2",
    "id": 103
  },
  {
    "name": "선릉역",
    "region": "SE",
    "longitude": 127.049008,
    "pcbang_count": 28,
    "latitude": 37.504503,
    "line": "2",
    "id": 104
  },
  {
    "name": "역삼역",
    "region": "SE",
    "longitude": 127.036456,
    "pcbang_count": 30,
    "latitude": 37.500622,
    "line": "2",
    "id": 105
  },
  {
    "name": "강남역",
    "region": "SE",
    "longitude": 127.027926,
    "pcbang_count": 21,
    "latitude": 37.497175,
    "line": "2",
    "id": 106
  },
  {
    "name": "서초역",
    "region": "SE",
    "longitude": 127.007917,
    "pcbang_count": 16,
    "latitude": 37.491897,
    "line": "2",
    "id": 107
  },
  {
    "name": "방배역",
    "region": "SE",
    "longitude": 126.997596,
    "pcbang_count": 8,
    "latitude": 37.481426,
    "line": "2",
    "id": 108
  },
  {
    "name": "신촌역",
    "region": "SE",
    "longitude": 126.936893,
    "pcbang_count": 27,
    "latitude": 37.555134,
    "line": "2",
    "id": 109
  },
  {
    "name": "이대역",
    "region": "SE",
    "longitude": 126.946013,
    "pcbang_count": 23,
    "latitude": 37.556733,
    "line": "2",
    "id": 110
  },
  {
    "name": "아현역",
    "region": "SE",
    "longitude": 126.956141,
    "pcbang_count": 15,
    "latitude": 37.557345,
    "line": "2",
    "id": 111
  },
  {
    "name": "충정로역",
    "region": "SE",
    "longitude": 126.963672,
    "pcbang_count": 10,
    "latitude": 37.559973,
    "line": "2",
    "id": 112
  },
  {
    "name": "용답역",
    "region": "SE",
    "longitude": 127.050899,
    "pcbang_count": 19,
    "latitude": 37.561904,
    "line": "2",
    "id": 113
  },
  {
    "name": "신답역",
    "region": "SE",
    "longitude": 127.046481,
    "pcbang_count": 16,
    "latitude": 37.57004,
    "line": "2",
    "id": 114
  },
  {
    "name": "도림천역",
    "region": "SE",
    "longitude": 126.882768,
    "pcbang_count": 12,
    "latitude": 37.514287,
    "line": "2",
    "id": 115
  },
  {
    "name": "양천구청역",
    "region": "SE",
    "longitude": 126.865819,
    "pcbang_count": 10,
    "latitude": 37.512398,
    "line": "2",
    "id": 116
  },
  {
    "name": "신정네거리역",
    "region": "SE",
    "longitude": 126.852912,
    "pcbang_count": 17,
    "latitude": 37.520074,
    "line": "2",
    "id": 117
  },
  {
    "name": "사당역",
    "region": "SE",
    "longitude": 126.981685,
    "pcbang_count": 17,
    "latitude": 37.47653,
    "line": "2",
    "id": 118
  },
  {
    "name": "낙성대역",
    "region": "SE",
    "longitude": 126.963693,
    "pcbang_count": 24,
    "latitude": 37.47693,
    "line": "2",
    "id": 119
  },
  {
    "name": "서울대입구역",
    "region": "SE",
    "longitude": 126.952739,
    "pcbang_count": 26,
    "latitude": 37.481247,
    "line": "2",
    "id": 120
  },
  {
    "name": "봉천역",
    "region": "SE",
    "longitude": 126.941892,
    "pcbang_count": 25,
    "latitude": 37.482362,
    "line": "2",
    "id": 121
  },
  {
    "name": "신림역",
    "region": "SE",
    "longitude": 126.929715,
    "pcbang_count": 33,
    "latitude": 37.484201,
    "line": "2",
    "id": 122
  },
  {
    "name": "신대방역",
    "region": "SE",
    "longitude": 126.913149,
    "pcbang_count": 17,
    "latitude": 37.487462,
    "line": "2",
    "id": 123
  },
  {
    "name": "구로디지털단지역",
    "region": "SE",
    "longitude": 126.901401,
    "pcbang_count": 23,
    "latitude": 37.485266,
    "line": "2",
    "id": 124
  },
  {
    "name": "대림역",
    "region": "SE",
    "longitude": 126.895801,
    "pcbang_count": 26,
    "latitude": 37.49297,
    "line": "2",
    "id": 125
  },
  {
    "name": "신도림역",
    "region": "SE",
    "longitude": 126.891295,
    "pcbang_count": 18,
    "latitude": 37.508725,
    "line": "2",
    "id": 126
  },
  {
    "name": "문래역",
    "region": "SE",
    "longitude": 126.89476,
    "pcbang_count": 14,
    "latitude": 37.517933,
    "line": "2",
    "id": 127
  },
  {
    "name": "영등포구청역",
    "region": "SE",
    "longitude": 126.895951,
    "pcbang_count": 13,
    "latitude": 37.52497,
    "line": "2",
    "id": 128
  },
  {
    "name": "당산역",
    "region": "SE",
    "longitude": 126.902281,
    "pcbang_count": 10,
    "latitude": 37.53438,
    "line": "2",
    "id": 129
  },
  {
    "name": "합정역",
    "region": "SE",
    "longitude": 126.913739,
    "pcbang_count": 22,
    "latitude": 37.549463,
    "line": "2",
    "id": 130
  },
  {
    "name": "홍대입구역",
    "region": "SE",
    "longitude": 126.925381,
    "pcbang_count": 24,
    "latitude": 37.557192,
    "line": "2",
    "id": 131
  },
  {
    "name": "을지로입구역",
    "region": "SE",
    "longitude": 126.982618,
    "pcbang_count": 11,
    "latitude": 37.566014,
    "line": "2",
    "id": 132
  },
  {
    "name": "을지로4가역",
    "region": "SE",
    "longitude": 126.998079,
    "pcbang_count": 17,
    "latitude": 37.566941,
    "line": "2",
    "id": 133
  },
  {
    "name": "동대문역사문화공원역",
    "region": "SE",
    "longitude": 127.007896,
    "pcbang_count": 21,
    "latitude": 37.565138,
    "line": "2",
    "id": 134
  },
  {
    "name": "신당역",
    "region": "SE",
    "longitude": 127.01782,
    "pcbang_count": 20,
    "latitude": 37.565972,
    "line": "2",
    "id": 135
  },
  {
    "name": "상왕십리역",
    "region": "SE",
    "longitude": 127.029354,
    "pcbang_count": 21,
    "latitude": 37.564354,
    "line": "2",
    "id": 136
  },
  {
    "name": "왕십리역",
    "region": "SE",
    "longitude": 127.037732,
    "pcbang_count": 21,
    "latitude": 37.561533,
    "line": "2",
    "id": 137
  },
  {
    "name": "한양대역",
    "region": "SE",
    "longitude": 127.043655,
    "pcbang_count": 25,
    "latitude": 37.555273,
    "line": "2",
    "id": 138
  },
  {
    "name": "뚝섬역",
    "region": "SE",
    "longitude": 127.047367,
    "pcbang_count": 8,
    "latitude": 37.547184,
    "line": "2",
    "id": 139
  },
  {
    "name": "성수역",
    "region": "SE",
    "longitude": 127.055961,
    "pcbang_count": 17,
    "latitude": 37.544581,
    "line": "2",
    "id": 140
  },
  {
    "name": "용두역",
    "region": "SE",
    "longitude": 127.038091,
    "pcbang_count": 14,
    "latitude": 37.574028,
    "line": "2",
    "id": 141
  },
  {
    "name": "을지로3가역",
    "region": "SE",
    "longitude": 126.99191,
    "pcbang_count": 15,
    "latitude": 37.566295,
    "line": "2",
    "id": 142
  },
  {
    "name": "지축역",
    "region": "SE",
    "longitude": 126.913951,
    "pcbang_count": 0,
    "latitude": 37.648048,
    "line": "3",
    "id": 143
  },
  {
    "name": "구파발역",
    "region": "SE",
    "longitude": 126.918821,
    "pcbang_count": 2,
    "latitude": 37.636763,
    "line": "3",
    "id": 144
  },
  {
    "name": "연신내역",
    "region": "SE",
    "longitude": 126.921008,
    "pcbang_count": 23,
    "latitude": 37.619001,
    "line": "3",
    "id": 145
  },
  {
    "name": "불광역",
    "region": "SE",
    "longitude": 126.929887,
    "pcbang_count": 20,
    "latitude": 37.610469,
    "line": "3",
    "id": 146
  },
  {
    "name": "녹번역",
    "region": "SE",
    "longitude": 126.935756,
    "pcbang_count": 8,
    "latitude": 37.600927,
    "line": "3",
    "id": 147
  },
  {
    "name": "홍제역",
    "region": "SE",
    "longitude": 126.943736,
    "pcbang_count": 8,
    "latitude": 37.589066,
    "line": "3",
    "id": 148
  },
  {
    "name": "무악재역",
    "region": "SE",
    "longitude": 126.950291,
    "pcbang_count": 6,
    "latitude": 37.582299,
    "line": "3",
    "id": 149
  },
  {
    "name": "독립문역",
    "region": "SE",
    "longitude": 126.957748,
    "pcbang_count": 6,
    "latitude": 37.574571,
    "line": "3",
    "id": 150
  },
  {
    "name": "경복궁역",
    "region": "SE",
    "longitude": 126.97353,
    "pcbang_count": 6,
    "latitude": 37.575762,
    "line": "3",
    "id": 151
  },
  {
    "name": "안국역",
    "region": "SE",
    "longitude": 126.985443,
    "pcbang_count": 6,
    "latitude": 37.576477,
    "line": "3",
    "id": 152
  },
  {
    "name": "충무로역",
    "region": "SE",
    "longitude": 126.99428,
    "pcbang_count": 13,
    "latitude": 37.561243,
    "line": "3",
    "id": 153
  },
  {
    "name": "동대입구역",
    "region": "SE",
    "longitude": 127.005602,
    "pcbang_count": 19,
    "latitude": 37.559052,
    "line": "3",
    "id": 154
  },
  {
    "name": "약수역",
    "region": "SE",
    "longitude": 127.010655,
    "pcbang_count": 17,
    "latitude": 37.55434,
    "line": "3",
    "id": 155
  },
  {
    "name": "금호역",
    "region": "SE",
    "longitude": 127.015872,
    "pcbang_count": 10,
    "latitude": 37.548034,
    "line": "3",
    "id": 156
  },
  {
    "name": "옥수역",
    "region": "SE",
    "longitude": 127.017965,
    "pcbang_count": 6,
    "latitude": 37.540685,
    "line": "3",
    "id": 157
  },
  {
    "name": "압구정역",
    "region": "SE",
    "longitude": 127.028461,
    "pcbang_count": 9,
    "latitude": 37.527072,
    "line": "3",
    "id": 158
  },
  {
    "name": "신사역",
    "region": "SE",
    "longitude": 127.020114,
    "pcbang_count": 16,
    "latitude": 37.516334,
    "line": "3",
    "id": 159
  },
  {
    "name": "잠원역",
    "region": "SE",
    "longitude": 127.01122,
    "pcbang_count": 13,
    "latitude": 37.512759,
    "line": "3",
    "id": 160
  },
  {
    "name": "고속터미널역",
    "region": "SE",
    "longitude": 127.004943,
    "pcbang_count": 6,
    "latitude": 37.50481,
    "line": "3",
    "id": 161
  },
  {
    "name": "교대역",
    "region": "SE",
    "longitude": 127.01408,
    "pcbang_count": 15,
    "latitude": 37.493415,
    "line": "3",
    "id": 162
  },
  {
    "name": "남부터미널역",
    "region": "SE",
    "longitude": 127.016189,
    "pcbang_count": 12,
    "latitude": 37.485013,
    "line": "3",
    "id": 163
  },
  {
    "name": "양재역",
    "region": "SE",
    "longitude": 127.034631,
    "pcbang_count": 16,
    "latitude": 37.484147,
    "line": "3",
    "id": 164
  },
  {
    "name": "매봉역",
    "region": "SE",
    "longitude": 127.046769,
    "pcbang_count": 18,
    "latitude": 37.486947,
    "line": "3",
    "id": 165
  },
  {
    "name": "도곡역",
    "region": "SE",
    "longitude": 127.055381,
    "pcbang_count": 16,
    "latitude": 37.490858,
    "line": "3",
    "id": 166
  },
  {
    "name": "대치역",
    "region": "SE",
    "longitude": 127.063642,
    "pcbang_count": 17,
    "latitude": 37.494612,
    "line": "3",
    "id": 167
  },
  {
    "name": "학여울역",
    "region": "SE",
    "longitude": 127.070594,
    "pcbang_count": 13,
    "latitude": 37.496663,
    "line": "3",
    "id": 168
  },
  {
    "name": "대청역",
    "region": "SE",
    "longitude": 127.079532,
    "pcbang_count": 10,
    "latitude": 37.493514,
    "line": "3",
    "id": 169
  },
  {
    "name": "일원역",
    "region": "SE",
    "longitude": 127.08439,
    "pcbang_count": 11,
    "latitude": 37.483681,
    "line": "3",
    "id": 170
  },
  {
    "name": "수서역",
    "region": "SE",
    "longitude": 127.10188,
    "pcbang_count": 1,
    "latitude": 37.487371,
    "line": "3",
    "id": 171
  },
  {
    "name": "경찰병원역",
    "region": "SE",
    "longitude": 127.12454,
    "pcbang_count": 23,
    "latitude": 37.495918,
    "line": "3",
    "id": 172
  },
  {
    "name": "삼송역",
    "region": "SE",
    "longitude": 126.895558,
    "pcbang_count": 1,
    "latitude": 37.653083,
    "line": "3",
    "id": 173
  },
  {
    "name": "원당역",
    "region": "SE",
    "longitude": 126.843041,
    "pcbang_count": 11,
    "latitude": 37.653324,
    "line": "3",
    "id": 174
  },
  {
    "name": "화정역",
    "region": "SE",
    "longitude": 126.83265,
    "pcbang_count": 20,
    "latitude": 37.634592,
    "line": "3",
    "id": 175
  },
  {
    "name": "대곡역",
    "region": "SE",
    "longitude": 126.811024,
    "pcbang_count": 3,
    "latitude": 37.631626,
    "line": "3",
    "id": 176
  },
  {
    "name": "백석역",
    "region": "SE",
    "longitude": 126.78787,
    "pcbang_count": 13,
    "latitude": 37.643114,
    "line": "3",
    "id": 177
  },
  {
    "name": "마두역",
    "region": "SE",
    "longitude": 126.77762,
    "pcbang_count": 15,
    "latitude": 37.652206,
    "line": "3",
    "id": 178
  },
  {
    "name": "정발산역",
    "region": "SE",
    "longitude": 126.773359,
    "pcbang_count": 17,
    "latitude": 37.659477,
    "line": "3",
    "id": 179
  },
  {
    "name": "주엽역",
    "region": "SE",
    "longitude": 126.761334,
    "pcbang_count": 18,
    "latitude": 37.670072,
    "line": "3",
    "id": 180
  },
  {
    "name": "대화역",
    "region": "SE",
    "longitude": 126.747569,
    "pcbang_count": 10,
    "latitude": 37.676087,
    "line": "3",
    "id": 181
  },
  {
    "name": "원흥역",
    "region": "SE",
    "longitude": 126.872642,
    "pcbang_count": 1,
    "latitude": 37.650658,
    "line": "3",
    "id": 182
  },
  {
    "name": "중앙역",
    "region": "SE",
    "longitude": 126.838573,
    "pcbang_count": 20,
    "latitude": 37.315941,
    "line": "4",
    "id": 183
  },
  {
    "name": "수리산역",
    "region": "SE",
    "longitude": 126.925365,
    "pcbang_count": 4,
    "latitude": 37.349801,
    "line": "4",
    "id": 184
  },
  {
    "name": "한성대입구역",
    "region": "SE",
    "longitude": 127.006221,
    "pcbang_count": 17,
    "latitude": 37.588458,
    "line": "4",
    "id": 185
  },
  {
    "name": "혜화역",
    "region": "SE",
    "longitude": 127.001844,
    "pcbang_count": 15,
    "latitude": 37.582336,
    "line": "4",
    "id": 186
  },
  {
    "name": "명동역",
    "region": "SE",
    "longitude": 126.986325,
    "pcbang_count": 10,
    "latitude": 37.560989,
    "line": "4",
    "id": 187
  },
  {
    "name": "회현역",
    "region": "SE",
    "longitude": 126.978246,
    "pcbang_count": 7,
    "latitude": 37.558514,
    "line": "4",
    "id": 188
  },
  {
    "name": "숙대입구역",
    "region": "SE",
    "longitude": 126.972106,
    "pcbang_count": 17,
    "latitude": 37.54456,
    "line": "4",
    "id": 189
  },
  {
    "name": "삼각지역",
    "region": "SE",
    "longitude": 126.97311,
    "pcbang_count": 8,
    "latitude": 37.534777,
    "line": "4",
    "id": 190
  },
  {
    "name": "신용산역",
    "region": "SE",
    "longitude": 126.967894,
    "pcbang_count": 6,
    "latitude": 37.52917,
    "line": "4",
    "id": 191
  },
  {
    "name": "이촌역",
    "region": "SE",
    "longitude": 126.974345,
    "pcbang_count": 4,
    "latitude": 37.522272,
    "line": "4",
    "id": 192
  },
  {
    "name": "동작역",
    "region": "SE",
    "longitude": 126.979306,
    "pcbang_count": 4,
    "latitude": 37.502971,
    "line": "4",
    "id": 193
  },
  {
    "name": "총신대입구역",
    "region": "SE",
    "longitude": 126.981989,
    "pcbang_count": 21,
    "latitude": 37.486263,
    "line": "4",
    "id": 194
  },
  {
    "name": "선바위역",
    "region": "SE",
    "longitude": 127.002303,
    "pcbang_count": 0,
    "latitude": 37.451673,
    "line": "4",
    "id": 195
  },
  {
    "name": "경마공원역",
    "region": "SE",
    "longitude": 127.007888,
    "pcbang_count": 0,
    "latitude": 37.443885,
    "line": "4",
    "id": 196
  },
  {
    "name": "대공원역",
    "region": "SE",
    "longitude": 127.006523,
    "pcbang_count": 1,
    "latitude": 37.435675,
    "line": "4",
    "id": 197
  },
  {
    "name": "과천역",
    "region": "SE",
    "longitude": 126.996568,
    "pcbang_count": 7,
    "latitude": 37.433021,
    "line": "4",
    "id": 198
  },
  {
    "name": "정부과천청사역",
    "region": "SE",
    "longitude": 126.98978,
    "pcbang_count": 7,
    "latitude": 37.426513,
    "line": "4",
    "id": 199
  },
  {
    "name": "인덕원역",
    "region": "SE",
    "longitude": 126.976715,
    "pcbang_count": 10,
    "latitude": 37.401553,
    "line": "4",
    "id": 200
  },
  {
    "name": "평촌역",
    "region": "SE",
    "longitude": 126.963883,
    "pcbang_count": 14,
    "latitude": 37.394287,
    "line": "4",
    "id": 201
  },
  {
    "name": "범계역",
    "region": "SE",
    "longitude": 126.950806,
    "pcbang_count": 22,
    "latitude": 37.389793,
    "line": "4",
    "id": 202
  },
  {
    "name": "금정역",
    "region": "SE",
    "longitude": 126.943429,
    "pcbang_count": 9,
    "latitude": 37.372221,
    "line": "4",
    "id": 203
  },
  {
    "name": "산본역",
    "region": "SE",
    "longitude": 126.933274,
    "pcbang_count": 19,
    "latitude": 37.358101,
    "line": "4",
    "id": 204
  },
  {
    "name": "대야미역",
    "region": "SE",
    "longitude": 126.917332,
    "pcbang_count": 0,
    "latitude": 37.328467,
    "line": "4",
    "id": 205
  },
  {
    "name": "반월역",
    "region": "SE",
    "longitude": 126.903524,
    "pcbang_count": 2,
    "latitude": 37.312212,
    "line": "4",
    "id": 206
  },
  {
    "name": "상록수역",
    "region": "SE",
    "longitude": 126.866489,
    "pcbang_count": 26,
    "latitude": 37.302795,
    "line": "4",
    "id": 207
  },
  {
    "name": "한대앞역",
    "region": "SE",
    "longitude": 126.85344,
    "pcbang_count": 16,
    "latitude": 37.309689,
    "line": "4",
    "id": 208
  },
  {
    "name": "고잔역",
    "region": "SE",
    "longitude": 126.823249,
    "pcbang_count": 14,
    "latitude": 37.316777,
    "line": "4",
    "id": 209
  },
  {
    "name": "초지역",
    "region": "SE",
    "longitude": 126.805913,
    "pcbang_count": 3,
    "latitude": 37.320646,
    "line": "4",
    "id": 210
  },
  {
    "name": "안산역",
    "region": "SE",
    "longitude": 126.788532,
    "pcbang_count": 13,
    "latitude": 37.327082,
    "line": "4",
    "id": 211
  },
  {
    "name": "신길온천역",
    "region": "SE",
    "longitude": 126.765844,
    "pcbang_count": 7,
    "latitude": 37.338212,
    "line": "4",
    "id": 212
  },
  {
    "name": "정왕역",
    "region": "SE",
    "longitude": 126.742989,
    "pcbang_count": 32,
    "latitude": 37.351735,
    "line": "4",
    "id": 213
  },
  {
    "name": "오이도역",
    "region": "SE",
    "longitude": 126.738714,
    "pcbang_count": 5,
    "latitude": 37.362357,
    "line": "4",
    "id": 214
  },
  {
    "name": "남태령역",
    "region": "SE",
    "longitude": 126.989134,
    "pcbang_count": 0,
    "latitude": 37.463873,
    "line": "4",
    "id": 215
  },
  {
    "name": "당고개역",
    "region": "SE",
    "longitude": 127.079066,
    "pcbang_count": 12,
    "latitude": 37.670272,
    "line": "4",
    "id": 216
  },
  {
    "name": "상계역",
    "region": "SE",
    "longitude": 127.073572,
    "pcbang_count": 26,
    "latitude": 37.660878,
    "line": "4",
    "id": 217
  },
  {
    "name": "노원역",
    "region": "SE",
    "longitude": 127.061368,
    "pcbang_count": 21,
    "latitude": 37.655128,
    "line": "4",
    "id": 218
  },
  {
    "name": "창동역",
    "region": "SE",
    "longitude": 127.047731,
    "pcbang_count": 12,
    "latitude": 37.653166,
    "line": "4",
    "id": 219
  },
  {
    "name": "쌍문역",
    "region": "SE",
    "longitude": 127.034709,
    "pcbang_count": 14,
    "latitude": 37.648627,
    "line": "4",
    "id": 220
  },
  {
    "name": "수유역",
    "region": "SE",
    "longitude": 127.025732,
    "pcbang_count": 30,
    "latitude": 37.638052,
    "line": "4",
    "id": 221
  },
  {
    "name": "미아역",
    "region": "SE",
    "longitude": 127.025983,
    "pcbang_count": 27,
    "latitude": 37.62667,
    "line": "4",
    "id": 222
  },
  {
    "name": "미아사거리역",
    "region": "SE",
    "longitude": 127.030053,
    "pcbang_count": 19,
    "latitude": 37.613292,
    "line": "4",
    "id": 223
  },
  {
    "name": "길음역",
    "region": "SE",
    "longitude": 127.025053,
    "pcbang_count": 16,
    "latitude": 37.603407,
    "line": "4",
    "id": 224
  },
  {
    "name": "성신여대입구역",
    "region": "SE",
    "longitude": 127.016403,
    "pcbang_count": 9,
    "latitude": 37.592624,
    "line": "4",
    "id": 225
  },
  {
    "name": "개화산역",
    "region": "SE",
    "longitude": 126.806171,
    "pcbang_count": 12,
    "latitude": 37.572399,
    "line": "5",
    "id": 226
  },
  {
    "name": "김포공항역",
    "region": "SE",
    "longitude": 126.801058,
    "pcbang_count": 4,
    "latitude": 37.562434,
    "line": "5",
    "id": 227
  },
  {
    "name": "송정역",
    "region": "SE",
    "longitude": 126.811973,
    "pcbang_count": 8,
    "latitude": 37.561184,
    "line": "5",
    "id": 228
  },
  {
    "name": "마곡역",
    "region": "SE",
    "longitude": 126.825448,
    "pcbang_count": 2,
    "latitude": 37.560183,
    "line": "5",
    "id": 229
  },
  {
    "name": "발산역",
    "region": "SE",
    "longitude": 126.837668,
    "pcbang_count": 10,
    "latitude": 37.558598,
    "line": "5",
    "id": 230
  },
  {
    "name": "우장산역",
    "region": "SE",
    "longitude": 126.836318,
    "pcbang_count": 19,
    "latitude": 37.548768,
    "line": "5",
    "id": 231
  },
  {
    "name": "화곡역",
    "region": "SE",
    "longitude": 126.840461,
    "pcbang_count": 24,
    "latitude": 37.541513,
    "line": "5",
    "id": 232
  },
  {
    "name": "까치산역",
    "region": "SE",
    "longitude": 126.846683,
    "pcbang_count": 18,
    "latitude": 37.531768,
    "line": "5",
    "id": 233
  },
  {
    "name": "신정역",
    "region": "SE",
    "longitude": 126.856191,
    "pcbang_count": 27,
    "latitude": 37.524997,
    "line": "5",
    "id": 234
  },
  {
    "name": "목동역",
    "region": "SE",
    "longitude": 126.864931,
    "pcbang_count": 26,
    "latitude": 37.526065,
    "line": "5",
    "id": 235
  },
  {
    "name": "오목교역",
    "region": "SE",
    "longitude": 126.875181,
    "pcbang_count": 11,
    "latitude": 37.524496,
    "line": "5",
    "id": 236
  },
  {
    "name": "양평역",
    "region": "SE",
    "longitude": 126.885778,
    "pcbang_count": 15,
    "latitude": 37.525648,
    "line": "5",
    "id": 237
  },
  {
    "name": "여의도역",
    "region": "SE",
    "longitude": 126.924191,
    "pcbang_count": 5,
    "latitude": 37.521624,
    "line": "5",
    "id": 238
  },
  {
    "name": "여의나루역",
    "region": "SE",
    "longitude": 126.932901,
    "pcbang_count": 3,
    "latitude": 37.527098,
    "line": "5",
    "id": 239
  },
  {
    "name": "공덕역",
    "region": "SE",
    "longitude": 126.951592,
    "pcbang_count": 17,
    "latitude": 37.544018,
    "line": "5",
    "id": 240
  },
  {
    "name": "애오개역",
    "region": "SE",
    "longitude": 126.95682,
    "pcbang_count": 16,
    "latitude": 37.553736,
    "line": "5",
    "id": 241
  },
  {
    "name": "서대문역",
    "region": "SE",
    "longitude": 126.966641,
    "pcbang_count": 11,
    "latitude": 37.565773,
    "line": "5",
    "id": 242
  },
  {
    "name": "광화문역",
    "region": "SE",
    "longitude": 126.976669,
    "pcbang_count": 10,
    "latitude": 37.571026,
    "line": "5",
    "id": 243
  },
  {
    "name": "청구역",
    "region": "SE",
    "longitude": 127.013828,
    "pcbang_count": 18,
    "latitude": 37.560245,
    "line": "5",
    "id": 244
  },
  {
    "name": "신금호역",
    "region": "SE",
    "longitude": 127.020331,
    "pcbang_count": 16,
    "latitude": 37.554548,
    "line": "5",
    "id": 245
  },
  {
    "name": "행당역",
    "region": "SE",
    "longitude": 127.029476,
    "pcbang_count": 23,
    "latitude": 37.557322,
    "line": "5",
    "id": 246
  },
  {
    "name": "마장역",
    "region": "SE",
    "longitude": 127.042973,
    "pcbang_count": 26,
    "latitude": 37.5661,
    "line": "5",
    "id": 247
  },
  {
    "name": "장한평역",
    "region": "SE",
    "longitude": 127.064623,
    "pcbang_count": 10,
    "latitude": 37.56144,
    "line": "5",
    "id": 248
  },
  {
    "name": "군자역",
    "region": "SE",
    "longitude": 127.079542,
    "pcbang_count": 22,
    "latitude": 37.557121,
    "line": "5",
    "id": 249
  },
  {
    "name": "아차산역",
    "region": "SE",
    "longitude": 127.089761,
    "pcbang_count": 18,
    "latitude": 37.551691,
    "line": "5",
    "id": 250
  },
  {
    "name": "광나루역",
    "region": "SE",
    "longitude": 127.10357,
    "pcbang_count": 7,
    "latitude": 37.545303,
    "line": "5",
    "id": 251
  },
  {
    "name": "천호역",
    "region": "SE",
    "longitude": 127.123572,
    "pcbang_count": 20,
    "latitude": 37.538397,
    "line": "5",
    "id": 252
  },
  {
    "name": "강동역",
    "region": "SE",
    "longitude": 127.132481,
    "pcbang_count": 34,
    "latitude": 37.535804,
    "line": "5",
    "id": 253
  },
  {
    "name": "길동역",
    "region": "SE",
    "longitude": 127.140004,
    "pcbang_count": 29,
    "latitude": 37.537801,
    "line": "5",
    "id": 254
  },
  {
    "name": "굽은다리역",
    "region": "SE",
    "longitude": 127.142853,
    "pcbang_count": 22,
    "latitude": 37.545477,
    "line": "5",
    "id": 255
  },
  {
    "name": "명일역",
    "region": "SE",
    "longitude": 127.143999,
    "pcbang_count": 16,
    "latitude": 37.55137,
    "line": "5",
    "id": 256
  },
  {
    "name": "고덕역",
    "region": "SE",
    "longitude": 127.154151,
    "pcbang_count": 13,
    "latitude": 37.555004,
    "line": "5",
    "id": 257
  },
  {
    "name": "상일동역",
    "region": "SE",
    "longitude": 127.166417,
    "pcbang_count": 14,
    "latitude": 37.556712,
    "line": "5",
    "id": 258
  },
  {
    "name": "올림픽공원역",
    "region": "SE",
    "longitude": 127.130848,
    "pcbang_count": 12,
    "latitude": 37.516078,
    "line": "5",
    "id": 259
  },
  {
    "name": "오금역",
    "region": "SE",
    "longitude": 127.128111,
    "pcbang_count": 23,
    "latitude": 37.502162,
    "line": "5",
    "id": 260
  },
  {
    "name": "개롱역",
    "region": "SE",
    "longitude": 127.13482,
    "pcbang_count": 24,
    "latitude": 37.498079,
    "line": "5",
    "id": 261
  },
  {
    "name": "거여역",
    "region": "SE",
    "longitude": 127.14415,
    "pcbang_count": 22,
    "latitude": 37.493105,
    "line": "5",
    "id": 262
  },
  {
    "name": "마천역",
    "region": "SE",
    "longitude": 127.152781,
    "pcbang_count": 14,
    "latitude": 37.49499,
    "line": "5",
    "id": 263
  },
  {
    "name": "마포역",
    "region": "SE",
    "longitude": 126.945932,
    "pcbang_count": 10,
    "latitude": 37.539574,
    "line": "5",
    "id": 264
  },
  {
    "name": "답십리역",
    "region": "SE",
    "longitude": 127.052704,
    "pcbang_count": 16,
    "latitude": 37.566747,
    "line": "5",
    "id": 265
  },
  {
    "name": "둔촌동역",
    "region": "SE",
    "longitude": 127.136248,
    "pcbang_count": 23,
    "latitude": 37.527788,
    "line": "5",
    "id": 266
  },
  {
    "name": "방화역",
    "region": "SE",
    "longitude": 126.812741,
    "pcbang_count": 9,
    "latitude": 37.577446,
    "line": "5",
    "id": 267
  },
  {
    "name": "영등포시장역",
    "region": "SE",
    "longitude": 126.905139,
    "pcbang_count": 13,
    "latitude": 37.522669,
    "line": "5",
    "id": 268
  },
  {
    "name": "방이역",
    "region": "SE",
    "longitude": 127.126133,
    "pcbang_count": 16,
    "latitude": 37.508857,
    "line": "5",
    "id": 269
  },
  {
    "name": "역촌역",
    "region": "SE",
    "longitude": 126.922744,
    "pcbang_count": 27,
    "latitude": 37.606021,
    "line": "6",
    "id": 270
  },
  {
    "name": "독바위역",
    "region": "SE",
    "longitude": 126.933031,
    "pcbang_count": 10,
    "latitude": 37.618456,
    "line": "6",
    "id": 271
  },
  {
    "name": "구산역",
    "region": "SE",
    "longitude": 126.91727,
    "pcbang_count": 26,
    "latitude": 37.611377,
    "line": "6",
    "id": 272
  },
  {
    "name": "증산역",
    "region": "SE",
    "longitude": 126.909645,
    "pcbang_count": 19,
    "latitude": 37.583876,
    "line": "6",
    "id": 273
  },
  {
    "name": "디지털미디어시티역",
    "region": "SE",
    "longitude": 126.900984,
    "pcbang_count": 12,
    "latitude": 37.576646,
    "line": "6",
    "id": 274
  },
  {
    "name": "월드컵경기장역",
    "region": "SE",
    "longitude": 126.899298,
    "pcbang_count": 7,
    "latitude": 37.569532,
    "line": "6",
    "id": 275
  },
  {
    "name": "마포구청역",
    "region": "SE",
    "longitude": 126.903343,
    "pcbang_count": 12,
    "latitude": 37.563515,
    "line": "6",
    "id": 276
  },
  {
    "name": "망원역",
    "region": "SE",
    "longitude": 126.910052,
    "pcbang_count": 19,
    "latitude": 37.556094,
    "line": "6",
    "id": 277
  },
  {
    "name": "상수역",
    "region": "SE",
    "longitude": 126.922852,
    "pcbang_count": 19,
    "latitude": 37.547716,
    "line": "6",
    "id": 278
  },
  {
    "name": "광흥창역",
    "region": "SE",
    "longitude": 126.931993,
    "pcbang_count": 25,
    "latitude": 37.547456,
    "line": "6",
    "id": 279
  },
  {
    "name": "대흥역",
    "region": "SE",
    "longitude": 126.942069,
    "pcbang_count": 22,
    "latitude": 37.547771,
    "line": "6",
    "id": 280
  },
  {
    "name": "효창공원앞역",
    "region": "SE",
    "longitude": 126.961351,
    "pcbang_count": 17,
    "latitude": 37.539261,
    "line": "6",
    "id": 281
  },
  {
    "name": "이태원역",
    "region": "SE",
    "longitude": 126.994302,
    "pcbang_count": 9,
    "latitude": 37.534488,
    "line": "6",
    "id": 282
  },
  {
    "name": "한강진역",
    "region": "SE",
    "longitude": 127.001725,
    "pcbang_count": 7,
    "latitude": 37.539631,
    "line": "6",
    "id": 283
  },
  {
    "name": "버티고개역",
    "region": "SE",
    "longitude": 127.007055,
    "pcbang_count": 5,
    "latitude": 37.548013,
    "line": "6",
    "id": 284
  },
  {
    "name": "창신역",
    "region": "SE",
    "longitude": 127.015241,
    "pcbang_count": 18,
    "latitude": 37.579661,
    "line": "6",
    "id": 285
  },
  {
    "name": "보문역",
    "region": "SE",
    "longitude": 127.019381,
    "pcbang_count": 20,
    "latitude": 37.585286,
    "line": "6",
    "id": 286
  },
  {
    "name": "안암역",
    "region": "SE",
    "longitude": 127.029005,
    "pcbang_count": 23,
    "latitude": 37.586272,
    "line": "6",
    "id": 287
  },
  {
    "name": "고려대역",
    "region": "SE",
    "longitude": 127.036296,
    "pcbang_count": 22,
    "latitude": 37.590508,
    "line": "6",
    "id": 288
  },
  {
    "name": "월곡역",
    "region": "SE",
    "longitude": 127.041518,
    "pcbang_count": 16,
    "latitude": 37.601948,
    "line": "6",
    "id": 289
  },
  {
    "name": "상월곡역",
    "region": "SE",
    "longitude": 127.048491,
    "pcbang_count": 15,
    "latitude": 37.606377,
    "line": "6",
    "id": 290
  },
  {
    "name": "돌곶이역",
    "region": "SE",
    "longitude": 127.056431,
    "pcbang_count": 15,
    "latitude": 37.610537,
    "line": "6",
    "id": 291
  },
  {
    "name": "태릉입구역",
    "region": "SE",
    "longitude": 127.07512,
    "pcbang_count": 18,
    "latitude": 37.617983,
    "line": "6",
    "id": 292
  },
  {
    "name": "화랑대역",
    "region": "SE",
    "longitude": 127.084689,
    "pcbang_count": 17,
    "latitude": 37.620064,
    "line": "6",
    "id": 293
  },
  {
    "name": "봉화산역",
    "region": "SE",
    "longitude": 127.091401,
    "pcbang_count": 4,
    "latitude": 37.617283,
    "line": "6",
    "id": 294
  },
  {
    "name": "새절역",
    "region": "SE",
    "longitude": 126.913629,
    "pcbang_count": 22,
    "latitude": 37.591148,
    "line": "6",
    "id": 295
  },
  {
    "name": "녹사평역",
    "region": "SE",
    "longitude": 126.986695,
    "pcbang_count": 4,
    "latitude": 37.534675,
    "line": "6",
    "id": 296
  },
  {
    "name": "응암역",
    "region": "SE",
    "longitude": 126.915577,
    "pcbang_count": 22,
    "latitude": 37.598605,
    "line": "6",
    "id": 297
  },
  {
    "name": "장암역",
    "region": "SE",
    "longitude": 127.053196,
    "pcbang_count": 1,
    "latitude": 37.700109,
    "line": "7",
    "id": 298
  },
  {
    "name": "수락산역",
    "region": "SE",
    "longitude": 127.055315,
    "pcbang_count": 8,
    "latitude": 37.67785,
    "line": "7",
    "id": 299
  },
  {
    "name": "마들역",
    "region": "SE",
    "longitude": 127.057675,
    "pcbang_count": 11,
    "latitude": 37.66494,
    "line": "7",
    "id": 300
  },
  {
    "name": "중계역",
    "region": "SE",
    "longitude": 127.064303,
    "pcbang_count": 7,
    "latitude": 37.644583,
    "line": "7",
    "id": 301
  },
  {
    "name": "하계역",
    "region": "SE",
    "longitude": 127.06799,
    "pcbang_count": 10,
    "latitude": 37.636352,
    "line": "7",
    "id": 302
  },
  {
    "name": "공릉역",
    "region": "SE",
    "longitude": 127.072896,
    "pcbang_count": 15,
    "latitude": 37.625742,
    "line": "7",
    "id": 303
  },
  {
    "name": "먹골역",
    "region": "SE",
    "longitude": 127.077725,
    "pcbang_count": 10,
    "latitude": 37.610637,
    "line": "7",
    "id": 304
  },
  {
    "name": "중화역",
    "region": "SE",
    "longitude": 127.079264,
    "pcbang_count": 14,
    "latitude": 37.602545,
    "line": "7",
    "id": 305
  },
  {
    "name": "상봉역",
    "region": "SE",
    "longitude": 127.085032,
    "pcbang_count": 27,
    "latitude": 37.596362,
    "line": "7",
    "id": 306
  },
  {
    "name": "면목역",
    "region": "SE",
    "longitude": 127.087503,
    "pcbang_count": 30,
    "latitude": 37.588579,
    "line": "7",
    "id": 307
  },
  {
    "name": "사가정역",
    "region": "SE",
    "longitude": 127.088478,
    "pcbang_count": 23,
    "latitude": 37.580894,
    "line": "7",
    "id": 308
  },
  {
    "name": "용마산역",
    "region": "SE",
    "longitude": 127.086727,
    "pcbang_count": 17,
    "latitude": 37.573647,
    "line": "7",
    "id": 309
  },
  {
    "name": "중곡역",
    "region": "SE",
    "longitude": 127.08432,
    "pcbang_count": 20,
    "latitude": 37.565923,
    "line": "7",
    "id": 310
  },
  {
    "name": "어린이대공원역",
    "region": "SE",
    "longitude": 127.074658,
    "pcbang_count": 28,
    "latitude": 37.548014,
    "line": "7",
    "id": 311
  },
  {
    "name": "뚝섬유원지역",
    "region": "SE",
    "longitude": 127.066704,
    "pcbang_count": 12,
    "latitude": 37.53154,
    "line": "7",
    "id": 312
  },
  {
    "name": "청담역",
    "region": "SE",
    "longitude": 127.05335,
    "pcbang_count": 9,
    "latitude": 37.519365,
    "line": "7",
    "id": 313
  },
  {
    "name": "강남구청역",
    "region": "SE",
    "longitude": 127.04128,
    "pcbang_count": 15,
    "latitude": 37.517186,
    "line": "7",
    "id": 314
  },
  {
    "name": "논현역",
    "region": "SE",
    "longitude": 127.021415,
    "pcbang_count": 23,
    "latitude": 37.511093,
    "line": "7",
    "id": 315
  },
  {
    "name": "반포역",
    "region": "SE",
    "longitude": 127.011727,
    "pcbang_count": 15,
    "latitude": 37.508178,
    "line": "7",
    "id": 316
  },
  {
    "name": "내방역",
    "region": "SE",
    "longitude": 126.993513,
    "pcbang_count": 16,
    "latitude": 37.487618,
    "line": "7",
    "id": 317
  },
  {
    "name": "숭실대입구역",
    "region": "SE",
    "longitude": 126.953822,
    "pcbang_count": 15,
    "latitude": 37.496029,
    "line": "7",
    "id": 318
  },
  {
    "name": "상도역",
    "region": "SE",
    "longitude": 126.94791,
    "pcbang_count": 27,
    "latitude": 37.502834,
    "line": "7",
    "id": 319
  },
  {
    "name": "장승배기역",
    "region": "SE",
    "longitude": 126.93915,
    "pcbang_count": 46,
    "latitude": 37.504898,
    "line": "7",
    "id": 320
  },
  {
    "name": "신대방삼거리역",
    "region": "SE",
    "longitude": 126.928276,
    "pcbang_count": 22,
    "latitude": 37.499701,
    "line": "7",
    "id": 321
  },
  {
    "name": "보라매역",
    "region": "SE",
    "longitude": 126.920428,
    "pcbang_count": 22,
    "latitude": 37.499872,
    "line": "7",
    "id": 322
  },
  {
    "name": "남구로역",
    "region": "SE",
    "longitude": 126.887249,
    "pcbang_count": 22,
    "latitude": 37.486056,
    "line": "7",
    "id": 323
  },
  {
    "name": "광명사거리역",
    "region": "SE",
    "longitude": 126.854876,
    "pcbang_count": 26,
    "latitude": 37.479252,
    "line": "7",
    "id": 324
  },
  {
    "name": "천왕역",
    "region": "SE",
    "longitude": 126.838713,
    "pcbang_count": 9,
    "latitude": 37.486637,
    "line": "7",
    "id": 325
  },
  {
    "name": "까치울역",
    "region": "SE",
    "longitude": 126.810939,
    "pcbang_count": 0,
    "latitude": 37.506207,
    "line": "7",
    "id": 326
  },
  {
    "name": "부천종합운동장역",
    "region": "SE",
    "longitude": 126.797337,
    "pcbang_count": 4,
    "latitude": 37.50538,
    "line": "7",
    "id": 327
  },
  {
    "name": "굴포천역",
    "region": "SE",
    "longitude": 126.73128,
    "pcbang_count": 18,
    "latitude": 37.506997,
    "line": "7",
    "id": 328
  },
  {
    "name": "학동역",
    "region": "SE",
    "longitude": 127.031656,
    "pcbang_count": 27,
    "latitude": 37.514229,
    "line": "7",
    "id": 329
  },
  {
    "name": "남성역",
    "region": "SE",
    "longitude": 126.971251,
    "pcbang_count": 25,
    "latitude": 37.484596,
    "line": "7",
    "id": 330
  },
  {
    "name": "신풍역",
    "region": "SE",
    "longitude": 126.90993,
    "pcbang_count": 23,
    "latitude": 37.50008,
    "line": "7",
    "id": 331
  },
  {
    "name": "춘의역",
    "region": "SE",
    "longitude": 126.787036,
    "pcbang_count": 14,
    "latitude": 37.503663,
    "line": "7",
    "id": 332
  },
  {
    "name": "신중동역",
    "region": "SE",
    "longitude": 126.77596,
    "pcbang_count": 18,
    "latitude": 37.503048,
    "line": "7",
    "id": 333
  },
  {
    "name": "부천시청역",
    "region": "SE",
    "longitude": 126.763538,
    "pcbang_count": 21,
    "latitude": 37.504631,
    "line": "7",
    "id": 334
  },
  {
    "name": "상동역",
    "region": "SE",
    "longitude": 126.753083,
    "pcbang_count": 15,
    "latitude": 37.505781,
    "line": "7",
    "id": 335
  },
  {
    "name": "삼산체육관역",
    "region": "SE",
    "longitude": 126.742153,
    "pcbang_count": 19,
    "latitude": 37.506411,
    "line": "7",
    "id": 336
  },
  {
    "name": "철산역",
    "region": "SE",
    "longitude": 126.867911,
    "pcbang_count": 14,
    "latitude": 37.47605,
    "line": "7",
    "id": 337
  },
  {
    "name": "신흥역",
    "region": "SE",
    "longitude": 127.147564,
    "pcbang_count": 27,
    "latitude": 37.440918,
    "line": "8",
    "id": 338
  },
  {
    "name": "수진역",
    "region": "SE",
    "longitude": 127.140722,
    "pcbang_count": 41,
    "latitude": 37.437428,
    "line": "8",
    "id": 339
  },
  {
    "name": "강동구청역",
    "region": "SE",
    "longitude": 127.120508,
    "pcbang_count": 16,
    "latitude": 37.530341,
    "line": "8",
    "id": 340
  },
  {
    "name": "몽촌토성역",
    "region": "SE",
    "longitude": 127.112359,
    "pcbang_count": 10,
    "latitude": 37.517409,
    "line": "8",
    "id": 341
  },
  {
    "name": "석촌역",
    "region": "SE",
    "longitude": 127.106979,
    "pcbang_count": 21,
    "latitude": 37.505431,
    "line": "8",
    "id": 342
  },
  {
    "name": "송파역",
    "region": "SE",
    "longitude": 127.112183,
    "pcbang_count": 17,
    "latitude": 37.499703,
    "line": "8",
    "id": 343
  },
  {
    "name": "가락시장역",
    "region": "SE",
    "longitude": 127.118234,
    "pcbang_count": 13,
    "latitude": 37.492522,
    "line": "8",
    "id": 344
  },
  {
    "name": "문정역",
    "region": "SE",
    "longitude": 127.1225,
    "pcbang_count": 12,
    "latitude": 37.485855,
    "line": "8",
    "id": 345
  },
  {
    "name": "장지역",
    "region": "SE",
    "longitude": 127.126191,
    "pcbang_count": 2,
    "latitude": 37.478703,
    "line": "8",
    "id": 346
  },
  {
    "name": "남한산성입구역",
    "region": "SE",
    "longitude": 127.159816,
    "pcbang_count": 25,
    "latitude": 37.451535,
    "line": "8",
    "id": 347
  },
  {
    "name": "암사역",
    "region": "SE",
    "longitude": 127.127562,
    "pcbang_count": 17,
    "latitude": 37.55021,
    "line": "8",
    "id": 348
  },
  {
    "name": "단대오거리역",
    "region": "SE",
    "longitude": 127.156866,
    "pcbang_count": 27,
    "latitude": 37.44521,
    "line": "8",
    "id": 349
  },
  {
    "name": "산성역",
    "region": "SE",
    "longitude": 127.149908,
    "pcbang_count": 10,
    "latitude": 37.457122,
    "line": "8",
    "id": 350
  },
  {
    "name": "신흥역",
    "region": "SE",
    "longitude": 127.147564,
    "pcbang_count": 27,
    "latitude": 37.440918,
    "line": "8",
    "id": 351
  },
  {
    "name": "수진역",
    "region": "SE",
    "longitude": 127.140722,
    "pcbang_count": 41,
    "latitude": 37.437428,
    "line": "8",
    "id": 352
  },
  {
    "name": "강동구청역",
    "region": "SE",
    "longitude": 127.120508,
    "pcbang_count": 16,
    "latitude": 37.530341,
    "line": "8",
    "id": 353
  },
  {
    "name": "몽촌토성역",
    "region": "SE",
    "longitude": 127.112359,
    "pcbang_count": 10,
    "latitude": 37.517409,
    "line": "8",
    "id": 354
  },
  {
    "name": "석촌역",
    "region": "SE",
    "longitude": 127.106979,
    "pcbang_count": 21,
    "latitude": 37.505431,
    "line": "8",
    "id": 355
  },
  {
    "name": "송파역",
    "region": "SE",
    "longitude": 127.112183,
    "pcbang_count": 17,
    "latitude": 37.499703,
    "line": "8",
    "id": 356
  },
  {
    "name": "가락시장역",
    "region": "SE",
    "longitude": 127.118234,
    "pcbang_count": 13,
    "latitude": 37.492522,
    "line": "8",
    "id": 357
  },
  {
    "name": "문정역",
    "region": "SE",
    "longitude": 127.1225,
    "pcbang_count": 12,
    "latitude": 37.485855,
    "line": "8",
    "id": 358
  },
  {
    "name": "장지역",
    "region": "SE",
    "longitude": 127.126191,
    "pcbang_count": 2,
    "latitude": 37.478703,
    "line": "8",
    "id": 359
  },
  {
    "name": "남한산성입구역",
    "region": "SE",
    "longitude": 127.159816,
    "pcbang_count": 25,
    "latitude": 37.451535,
    "line": "8",
    "id": 360
  },
  {
    "name": "암사역",
    "region": "SE",
    "longitude": 127.127562,
    "pcbang_count": 17,
    "latitude": 37.55021,
    "line": "8",
    "id": 361
  },
  {
    "name": "단대오거리역",
    "region": "SE",
    "longitude": 127.156866,
    "pcbang_count": 27,
    "latitude": 37.44521,
    "line": "8",
    "id": 362
  },
  {
    "name": "산성역",
    "region": "SE",
    "longitude": 127.149908,
    "pcbang_count": 10,
    "latitude": 37.457122,
    "line": "8",
    "id": 363
  },
  {
    "name": "귤현역",
    "region": "SE",
    "longitude": 126.742654,
    "pcbang_count": 0,
    "latitude": 37.566379,
    "line": "I",
    "id": 364
  },
  {
    "name": "박촌역",
    "region": "SE",
    "longitude": 126.745077,
    "pcbang_count": 10,
    "latitude": 37.553703,
    "line": "I",
    "id": 365
  },
  {
    "name": "계산역",
    "region": "SE",
    "longitude": 126.728128,
    "pcbang_count": 24,
    "latitude": 37.543238,
    "line": "I",
    "id": 366
  },
  {
    "name": "경인교대입구역",
    "region": "SE",
    "longitude": 126.722597,
    "pcbang_count": 25,
    "latitude": 37.538157,
    "line": "I",
    "id": 367
  },
  {
    "name": "부평구청역",
    "region": "SE",
    "longitude": 126.720548,
    "pcbang_count": 17,
    "latitude": 37.508336,
    "line": "I",
    "id": 368
  },
  {
    "name": "간석오거리역",
    "region": "SE",
    "longitude": 126.707938,
    "pcbang_count": 20,
    "latitude": 37.467048,
    "line": "I",
    "id": 369
  },
  {
    "name": "문학경기장역",
    "region": "SE",
    "longitude": 126.698579,
    "pcbang_count": 2,
    "latitude": 37.434935,
    "line": "I",
    "id": 370
  },
  {
    "name": "신연수역",
    "region": "SE",
    "longitude": 126.693863,
    "pcbang_count": 14,
    "latitude": 37.41804,
    "line": "I",
    "id": 371
  },
  {
    "name": "원인재역",
    "region": "SE",
    "longitude": 126.687389,
    "pcbang_count": 13,
    "latitude": 37.412603,
    "line": "I",
    "id": 372
  },
  {
    "name": "캠퍼스타운역",
    "region": "SE",
    "longitude": 126.661673,
    "pcbang_count": 6,
    "latitude": 37.387855,
    "line": "I",
    "id": 373
  },
  {
    "name": "테크노파크역",
    "region": "SE",
    "longitude": 126.656365,
    "pcbang_count": 1,
    "latitude": 37.382268,
    "line": "I",
    "id": 374
  },
  {
    "name": "인천대입구역",
    "region": "SE",
    "longitude": 126.639484,
    "pcbang_count": 3,
    "latitude": 37.386007,
    "line": "I",
    "id": 375
  },
  {
    "name": "국제업무지구역",
    "region": "SE",
    "longitude": 126.630347,
    "pcbang_count": 0,
    "latitude": 37.399907,
    "line": "I",
    "id": 376
  },
  {
    "name": "계양역",
    "region": "SE",
    "longitude": 126.735637,
    "pcbang_count": 1,
    "latitude": 37.571462,
    "line": "I",
    "id": 377
  },
  {
    "name": "임학역",
    "region": "SE",
    "longitude": 126.738665,
    "pcbang_count": 16,
    "latitude": 37.545059,
    "line": "I",
    "id": 378
  },
  {
    "name": "작전역",
    "region": "SE",
    "longitude": 126.722527,
    "pcbang_count": 19,
    "latitude": 37.530415,
    "line": "I",
    "id": 379
  },
  {
    "name": "부평시장역",
    "region": "SE",
    "longitude": 126.722244,
    "pcbang_count": 31,
    "latitude": 37.498383,
    "line": "I",
    "id": 380
  },
  {
    "name": "동수역",
    "region": "SE",
    "longitude": 126.718247,
    "pcbang_count": 21,
    "latitude": 37.485312,
    "line": "I",
    "id": 381
  },
  {
    "name": "부평삼거리역",
    "region": "SE",
    "longitude": 126.710208,
    "pcbang_count": 10,
    "latitude": 37.477679,
    "line": "I",
    "id": 382
  },
  {
    "name": "인천시청역",
    "region": "SE",
    "longitude": 126.702221,
    "pcbang_count": 17,
    "latitude": 37.457405,
    "line": "I",
    "id": 383
  },
  {
    "name": "예술회관역",
    "region": "SE",
    "longitude": 126.701012,
    "pcbang_count": 24,
    "latitude": 37.449396,
    "line": "I",
    "id": 384
  },
  {
    "name": "인천터미널역",
    "region": "SE",
    "longitude": 126.699706,
    "pcbang_count": 19,
    "latitude": 37.442383,
    "line": "I",
    "id": 385
  },
  {
    "name": "선학역",
    "region": "SE",
    "longitude": 126.698863,
    "pcbang_count": 6,
    "latitude": 37.426684,
    "line": "I",
    "id": 386
  },
  {
    "name": "동춘역",
    "region": "SE",
    "longitude": 126.681015,
    "pcbang_count": 10,
    "latitude": 37.404737,
    "line": "I",
    "id": 387
  },
  {
    "name": "동막역",
    "region": "SE",
    "longitude": 126.674005,
    "pcbang_count": 1,
    "latitude": 37.397878,
    "line": "I",
    "id": 388
  },
  {
    "name": "지식정보단지역",
    "region": "SE",
    "longitude": 126.645168,
    "pcbang_count": 1,
    "latitude": 37.378384,
    "line": "I",
    "id": 389
  },
  {
    "name": "센트럴파크역",
    "region": "SE",
    "longitude": 126.634729,
    "pcbang_count": 0,
    "latitude": 37.393054,
    "line": "I",
    "id": 390
  },
  {
    "name": "갈산역",
    "region": "SE",
    "longitude": 126.721514,
    "pcbang_count": 8,
    "latitude": 37.517268,
    "line": "I",
    "id": 391
  },
  {
    "name": "서빙고역",
    "region": "SE",
    "longitude": 126.988537,
    "pcbang_count": 4,
    "latitude": 37.519594,
    "line": "K",
    "id": 392
  },
  {
    "name": "한남역",
    "region": "SE",
    "longitude": 127.009169,
    "pcbang_count": 8,
    "latitude": 37.52943,
    "line": "K",
    "id": 393
  },
  {
    "name": "응봉역",
    "region": "SE",
    "longitude": 127.034538,
    "pcbang_count": 6,
    "latitude": 37.549946,
    "line": "K",
    "id": 394
  },
  {
    "name": "중랑역",
    "region": "SE",
    "longitude": 127.076116,
    "pcbang_count": 15,
    "latitude": 37.594917,
    "line": "K",
    "id": 395
  },
  {
    "name": "망우역",
    "region": "SE",
    "longitude": 127.091909,
    "pcbang_count": 19,
    "latitude": 37.59955,
    "line": "K",
    "id": 396
  },
  {
    "name": "양원역",
    "region": "SE",
    "longitude": 127.107906,
    "pcbang_count": 9,
    "latitude": 37.606596,
    "line": "K",
    "id": 397
  },
  {
    "name": "구리역",
    "region": "SE",
    "longitude": 127.143869,
    "pcbang_count": 20,
    "latitude": 37.603392,
    "line": "K",
    "id": 398
  },
  {
    "name": "도농역",
    "region": "SE",
    "longitude": 127.161153,
    "pcbang_count": 7,
    "latitude": 37.608806,
    "line": "K",
    "id": 399
  },
  {
    "name": "양정역",
    "region": "SE",
    "longitude": 127.19364,
    "pcbang_count": 0,
    "latitude": 37.60533,
    "line": "K",
    "id": 400
  },
  {
    "name": "덕소역",
    "region": "SE",
    "longitude": 127.208832,
    "pcbang_count": 5,
    "latitude": 37.586781,
    "line": "K",
    "id": 401
  },
  {
    "name": "도심역",
    "region": "SE",
    "longitude": 127.222672,
    "pcbang_count": 6,
    "latitude": 37.579622,
    "line": "K",
    "id": 402
  },
  {
    "name": "팔당역",
    "region": "SE",
    "longitude": 127.243939,
    "pcbang_count": 0,
    "latitude": 37.547371,
    "line": "K",
    "id": 403
  },
  {
    "name": "운길산역",
    "region": "SE",
    "longitude": 127.310115,
    "pcbang_count": 0,
    "latitude": 37.554669,
    "line": "K",
    "id": 404
  },
  {
    "name": "양수역",
    "region": "SE",
    "longitude": 127.329098,
    "pcbang_count": 1,
    "latitude": 37.545981,
    "line": "K",
    "id": 405
  },
  {
    "name": "신원역",
    "region": "SE",
    "longitude": 127.372921,
    "pcbang_count": 0,
    "latitude": 37.525545,
    "line": "K",
    "id": 406
  },
  {
    "name": "국수역",
    "region": "SE",
    "longitude": 127.399367,
    "pcbang_count": 0,
    "latitude": 37.516169,
    "line": "K",
    "id": 407
  },
  {
    "name": "아신역",
    "region": "SE",
    "longitude": 127.443173,
    "pcbang_count": 0,
    "latitude": 37.51382,
    "line": "K",
    "id": 408
  },
  {
    "name": "오빈역",
    "region": "SE",
    "longitude": 127.473868,
    "pcbang_count": 0,
    "latitude": 37.506062,
    "line": "K",
    "id": 409
  },
  {
    "name": "양평역",
    "region": "SE",
    "longitude": 127.491814,
    "pcbang_count": 10,
    "latitude": 37.492832,
    "line": "K",
    "id": 410
  },
  {
    "name": "원덕역",
    "region": "SE",
    "longitude": 127.547076,
    "pcbang_count": 0,
    "latitude": 37.468672,
    "line": "K",
    "id": 411
  },
  {
    "name": "용문역",
    "region": "SE",
    "longitude": 127.594647,
    "pcbang_count": 2,
    "latitude": 37.48223,
    "line": "K",
    "id": 412
  },
  {
    "name": "서울역",
    "region": "SE",
    "longitude": 126.969522,
    "pcbang_count": 11,
    "latitude": 37.556328,
    "line": "K",
    "id": 413
  },
  {
    "name": "신촌역",
    "region": "SE",
    "longitude": 126.942319,
    "pcbang_count": 18,
    "latitude": 37.559783,
    "line": "K",
    "id": 414
  },
  {
    "name": "서강대역",
    "region": "SE",
    "longitude": 126.935711,
    "pcbang_count": 28,
    "latitude": 37.551881,
    "line": "K",
    "id": 415
  },
  {
    "name": "가좌역",
    "region": "SE",
    "longitude": 126.915487,
    "pcbang_count": 10,
    "latitude": 37.568491,
    "line": "K",
    "id": 416
  },
  {
    "name": "수색역",
    "region": "SE",
    "longitude": 126.895611,
    "pcbang_count": 5,
    "latitude": 37.580842,
    "line": "K",
    "id": 417
  },
  {
    "name": "화전역",
    "region": "SE",
    "longitude": 126.868387,
    "pcbang_count": 1,
    "latitude": 37.602888,
    "line": "K",
    "id": 418
  },
  {
    "name": "행신역",
    "region": "SE",
    "longitude": 126.834146,
    "pcbang_count": 10,
    "latitude": 37.612102,
    "line": "K",
    "id": 419
  },
  {
    "name": "능곡역",
    "region": "SE",
    "longitude": 126.820783,
    "pcbang_count": 11,
    "latitude": 37.618808,
    "line": "K",
    "id": 420
  },
  {
    "name": "곡산역",
    "region": "SE",
    "longitude": 126.801762,
    "pcbang_count": 2,
    "latitude": 37.645676,
    "line": "K",
    "id": 421
  },
  {
    "name": "백마역",
    "region": "SE",
    "longitude": 126.794461,
    "pcbang_count": 10,
    "latitude": 37.658239,
    "line": "K",
    "id": 422
  },
  {
    "name": "풍산역",
    "region": "SE",
    "longitude": 126.786243,
    "pcbang_count": 6,
    "latitude": 37.672346,
    "line": "K",
    "id": 423
  },
  {
    "name": "일산역",
    "region": "SE",
    "longitude": 126.769846,
    "pcbang_count": 29,
    "latitude": 37.682077,
    "line": "K",
    "id": 424
  },
  {
    "name": "운정역",
    "region": "SE",
    "longitude": 126.767257,
    "pcbang_count": 0,
    "latitude": 37.725826,
    "line": "K",
    "id": 425
  },
  {
    "name": "금릉역",
    "region": "SE",
    "longitude": 126.765347,
    "pcbang_count": 9,
    "latitude": 37.751322,
    "line": "K",
    "id": 426
  },
  {
    "name": "월롱역",
    "region": "SE",
    "longitude": 126.792587,
    "pcbang_count": 0,
    "latitude": 37.796188,
    "line": "K",
    "id": 427
  },
  {
    "name": "파주역",
    "region": "SE",
    "longitude": 126.792783,
    "pcbang_count": 0,
    "latitude": 37.815298,
    "line": "K",
    "id": 428
  },
  {
    "name": "문산역",
    "region": "SE",
    "longitude": 126.788047,
    "pcbang_count": 5,
    "latitude": 37.854619,
    "line": "K",
    "id": 429
  },
  {
    "name": "탄현역",
    "region": "SE",
    "longitude": 126.761086,
    "pcbang_count": 12,
    "latitude": 37.694023,
    "line": "K",
    "id": 430
  },
  {
    "name": "금촌역",
    "region": "SE",
    "longitude": 126.774644,
    "pcbang_count": 11,
    "latitude": 37.766217,
    "line": "K",
    "id": 431
  },
  {
    "name": "야당역",
    "region": "SE",
    "longitude": 126.761356,
    "pcbang_count": 1,
    "latitude": 37.712327,
    "line": "K",
    "id": 432
  },
  {
    "name": "강매역",
    "region": "SE",
    "longitude": 126.843223,
    "pcbang_count": 11,
    "latitude": 37.612314,
    "line": "K",
    "id": 433
  },
  {
    "name": "오리역",
    "region": "SE",
    "longitude": 127.108942,
    "pcbang_count": 6,
    "latitude": 37.339824,
    "line": "B",
    "id": 434
  },
  {
    "name": "압구정로데오역",
    "region": "SE",
    "longitude": 127.040534,
    "pcbang_count": 7,
    "latitude": 37.527381,
    "line": "B",
    "id": 435
  },
  {
    "name": "선정릉역",
    "region": "SE",
    "longitude": 127.043593,
    "pcbang_count": 23,
    "latitude": 37.51098,
    "line": "B",
    "id": 436
  },
  {
    "name": "가천대역",
    "region": "SE",
    "longitude": 127.126697,
    "pcbang_count": 21,
    "latitude": 37.448605,
    "line": "B",
    "id": 437
  },
  {
    "name": "태평역",
    "region": "SE",
    "longitude": 127.127709,
    "pcbang_count": 24,
    "latitude": 37.440019,
    "line": "B",
    "id": 438
  },
  {
    "name": "모란역",
    "region": "SE",
    "longitude": 127.129087,
    "pcbang_count": 19,
    "latitude": 37.43213,
    "line": "B",
    "id": 439
  },
  {
    "name": "야탑역",
    "region": "SE",
    "longitude": 127.128715,
    "pcbang_count": 12,
    "latitude": 37.411185,
    "line": "B",
    "id": 440
  },
  {
    "name": "서현역",
    "region": "SE",
    "longitude": 127.123592,
    "pcbang_count": 15,
    "latitude": 37.385126,
    "line": "B",
    "id": 441
  },
  {
    "name": "수내역",
    "region": "SE",
    "longitude": 127.114322,
    "pcbang_count": 16,
    "latitude": 37.378455,
    "line": "B",
    "id": 442
  },
  {
    "name": "정자역",
    "region": "SE",
    "longitude": 127.108105,
    "pcbang_count": 7,
    "latitude": 37.36706,
    "line": "B",
    "id": 443
  },
  {
    "name": "미금역",
    "region": "SE",
    "longitude": 127.10891,
    "pcbang_count": 8,
    "latitude": 37.350077,
    "line": "B",
    "id": 444
  },
  {
    "name": "이매역",
    "region": "SE",
    "longitude": 127.12827,
    "pcbang_count": 1,
    "latitude": 37.396104,
    "line": "B",
    "id": 445
  },
  {
    "name": "보정역",
    "region": "SE",
    "longitude": 127.108196,
    "pcbang_count": 4,
    "latitude": 37.312752,
    "line": "B",
    "id": 446
  },
  {
    "name": "죽전역",
    "region": "SE",
    "longitude": 127.107395,
    "pcbang_count": 11,
    "latitude": 37.324753,
    "line": "B",
    "id": 447
  },
  {
    "name": "신갈역",
    "region": "SE",
    "longitude": 127.111313,
    "pcbang_count": 9,
    "latitude": 37.286102,
    "line": "B",
    "id": 448
  },
  {
    "name": "기흥역",
    "region": "SE",
    "longitude": 127.115936,
    "pcbang_count": 12,
    "latitude": 37.275619,
    "line": "B",
    "id": 449
  },
  {
    "name": "청명역",
    "region": "SE",
    "longitude": 127.078934,
    "pcbang_count": 11,
    "latitude": 37.259489,
    "line": "B",
    "id": 450
  },
  {
    "name": "영통역",
    "region": "SE",
    "longitude": 127.071394,
    "pcbang_count": 20,
    "latitude": 37.251568,
    "line": "B",
    "id": 451
  },
  {
    "name": "매탄권선역",
    "region": "SE",
    "longitude": 127.040566,
    "pcbang_count": 12,
    "latitude": 37.252759,
    "line": "B",
    "id": 452
  },
  {
    "name": "수원시청역",
    "region": "SE",
    "longitude": 127.030736,
    "pcbang_count": 12,
    "latitude": 37.261911,
    "line": "B",
    "id": 453
  },
  {
    "name": "한티역",
    "region": "SE",
    "longitude": 127.052873,
    "pcbang_count": 23,
    "latitude": 37.496237,
    "line": "B",
    "id": 454
  },
  {
    "name": "구룡역",
    "region": "SE",
    "longitude": 127.058856,
    "pcbang_count": 5,
    "latitude": 37.486839,
    "line": "B",
    "id": 455
  },
  {
    "name": "개포동역",
    "region": "SE",
    "longitude": 127.06614,
    "pcbang_count": 8,
    "latitude": 37.489116,
    "line": "B",
    "id": 456
  },
  {
    "name": "대모산입구역",
    "region": "SE",
    "longitude": 127.07272,
    "pcbang_count": 9,
    "latitude": 37.491373,
    "line": "B",
    "id": 457
  },
  {
    "name": "복정역",
    "region": "SE",
    "longitude": 127.126662,
    "pcbang_count": 0,
    "latitude": 37.470047,
    "line": "B",
    "id": 458
  },
  {
    "name": "서울숲역",
    "region": "SE",
    "longitude": 127.044707,
    "pcbang_count": 12,
    "latitude": 37.543617,
    "line": "B",
    "id": 459
  },
  {
    "name": "구성역",
    "region": "SE",
    "longitude": 127.105664,
    "pcbang_count": 3,
    "latitude": 37.298969,
    "line": "B",
    "id": 460
  },
  {
    "name": "상갈역",
    "region": "SE",
    "longitude": 127.108847,
    "pcbang_count": 4,
    "latitude": 37.26181,
    "line": "B",
    "id": 461
  },
  {
    "name": "망포역",
    "region": "SE",
    "longitude": 127.057353,
    "pcbang_count": 11,
    "latitude": 37.245795,
    "line": "B",
    "id": 462
  },
  {
    "name": "매교역",
    "region": "SE",
    "longitude": 127.015678,
    "pcbang_count": 14,
    "latitude": 37.265481,
    "line": "B",
    "id": 463
  },
  {
    "name": "서울역",
    "region": "SE",
    "longitude": 126.972559,
    "pcbang_count": 9,
    "latitude": 37.554648,
    "line": "A",
    "id": 464
  },
  {
    "name": "청라국제도시역",
    "region": "SE",
    "longitude": 126.625327,
    "pcbang_count": 0,
    "latitude": 37.555878,
    "line": "A",
    "id": 465
  },
  {
    "name": "검암역",
    "region": "SE",
    "longitude": 126.673728,
    "pcbang_count": 6,
    "latitude": 37.569104,
    "line": "A",
    "id": 466
  },
  {
    "name": "운서역",
    "region": "SE",
    "longitude": 126.49379,
    "pcbang_count": 5,
    "latitude": 37.492904,
    "line": "A",
    "id": 467
  },
  {
    "name": "공항화물청사역",
    "region": "SE",
    "longitude": 126.476241,
    "pcbang_count": 0,
    "latitude": 37.458366,
    "line": "A",
    "id": 468
  },
  {
    "name": "인천국제공항역",
    "region": "SE",
    "longitude": 126.452508,
    "pcbang_count": 0,
    "latitude": 37.447464,
    "line": "A",
    "id": 469
  },
  {
    "name": "영종역",
    "region": "SE",
    "longitude": 126.5237,
    "pcbang_count": 0,
    "latitude": 37.511466,
    "line": "A",
    "id": 470
  },
  {
    "name": "갈매역",
    "region": "SE",
    "longitude": 127.114757,
    "pcbang_count": 0,
    "latitude": 37.634118,
    "line": "G",
    "id": 471
  },
  {
    "name": "별내역",
    "region": "SE",
    "longitude": 127.12684,
    "pcbang_count": 1,
    "latitude": 37.64202,
    "line": "G",
    "id": 472
  },
  {
    "name": "사릉역",
    "region": "SE",
    "longitude": 127.176933,
    "pcbang_count": 3,
    "latitude": 37.65108,
    "line": "G",
    "id": 473
  },
  {
    "name": "금곡역",
    "region": "SE",
    "longitude": 127.207853,
    "pcbang_count": 3,
    "latitude": 37.637382,
    "line": "G",
    "id": 474
  },
  {
    "name": "평내호평역",
    "region": "SE",
    "longitude": 127.244493,
    "pcbang_count": 13,
    "latitude": 37.653225,
    "line": "G",
    "id": 475
  },
  {
    "name": "마석역",
    "region": "SE",
    "longitude": 127.311767,
    "pcbang_count": 9,
    "latitude": 37.652782,
    "line": "G",
    "id": 476
  },
  {
    "name": "대성리역",
    "region": "SE",
    "longitude": 127.379319,
    "pcbang_count": 0,
    "latitude": 37.684071,
    "line": "G",
    "id": 477
  },
  {
    "name": "청평역",
    "region": "SE",
    "longitude": 127.42661,
    "pcbang_count": 1,
    "latitude": 37.735488,
    "line": "G",
    "id": 478
  },
  {
    "name": "가평역",
    "region": "SE",
    "longitude": 127.510739,
    "pcbang_count": 0,
    "latitude": 37.814536,
    "line": "G",
    "id": 479
  },
  {
    "name": "굴봉산역",
    "region": "SE",
    "longitude": 127.557695,
    "pcbang_count": 0,
    "latitude": 37.832067,
    "line": "G",
    "id": 480
  },
  {
    "name": "강촌역",
    "region": "SE",
    "longitude": 127.634146,
    "pcbang_count": 0,
    "latitude": 37.805723,
    "line": "G",
    "id": 481
  },
  {
    "name": "김유정역",
    "region": "SE",
    "longitude": 127.71434,
    "pcbang_count": 0,
    "latitude": 37.818466,
    "line": "G",
    "id": 482
  },
  {
    "name": "남춘천역",
    "region": "SE",
    "longitude": 127.723792,
    "pcbang_count": 11,
    "latitude": 37.864007,
    "line": "G",
    "id": 483
  },
  {
    "name": "신내역",
    "region": "SE",
    "longitude": 127.103218,
    "pcbang_count": 8,
    "latitude": 37.612887,
    "line": "G",
    "id": 484
  },
  {
    "name": "퇴계원역",
    "region": "SE",
    "longitude": 127.143952,
    "pcbang_count": 3,
    "latitude": 37.648311,
    "line": "G",
    "id": 485
  },
  {
    "name": "천마산역",
    "region": "SE",
    "longitude": 127.285379,
    "pcbang_count": 0,
    "latitude": 37.658978,
    "line": "G",
    "id": 486
  },
  {
    "name": "상천역",
    "region": "SE",
    "longitude": 127.454821,
    "pcbang_count": 0,
    "latitude": 37.770246,
    "line": "G",
    "id": 487
  },
  {
    "name": "백양리역",
    "region": "SE",
    "longitude": 127.58933,
    "pcbang_count": 0,
    "latitude": 37.830779,
    "line": "G",
    "id": 488
  },
  {
    "name": "춘천역",
    "region": "SE",
    "longitude": 127.717023,
    "pcbang_count": 4,
    "latitude": 37.885054,
    "line": "G",
    "id": 489
  },
  {
    "name": "동천역",
    "region": "SE",
    "longitude": 127.102976,
    "pcbang_count": 6,
    "latitude": 37.337928,
    "line": "S",
    "id": 490
  },
  {
    "name": "수지구청역",
    "region": "SE",
    "longitude": 127.095026,
    "pcbang_count": 7,
    "latitude": 37.322702,
    "line": "S",
    "id": 491
  },
  {
    "name": "성복역",
    "region": "SE",
    "longitude": 127.0801,
    "pcbang_count": 7,
    "latitude": 37.313335,
    "line": "S",
    "id": 492
  },
  {
    "name": "상현역",
    "region": "SE",
    "longitude": 127.069342,
    "pcbang_count": 1,
    "latitude": 37.297664,
    "line": "S",
    "id": 493
  },
  {
    "name": "광교중앙역",
    "region": "SE",
    "longitude": 127.051478,
    "pcbang_count": 0,
    "latitude": 37.288617,
    "line": "S",
    "id": 494
  },
  {
    "name": "광교역",
    "region": "SE",
    "longitude": 127.044483,
    "pcbang_count": 2,
    "latitude": 37.30211,
    "line": "S",
    "id": 495
  },
  {
    "name": "양재시민의숲역",
    "region": "SE",
    "longitude": 127.03842,
    "pcbang_count": 9,
    "latitude": 37.470023,
    "line": "S",
    "id": 496
  },
  {
    "name": "청계산입구역",
    "region": "SE",
    "longitude": 127.055664,
    "pcbang_count": 0,
    "latitude": 37.447211,
    "line": "S",
    "id": 497
  },
  {
    "name": "판교역",
    "region": "SE",
    "longitude": 127.111217,
    "pcbang_count": 2,
    "latitude": 37.394761,
    "line": "S",
    "id": 498
  },
  {
    "name": "월곶역",
    "region": "SE",
    "longitude": 126.742699,
    "pcbang_count": 3,
    "latitude": 37.391769,
    "line": "SU",
    "id": 499
  },
  {
    "name": "소래포구역",
    "region": "SE",
    "longitude": 126.733522,
    "pcbang_count": 8,
    "latitude": 37.40095,
    "line": "SU",
    "id": 500
  },
  {
    "name": "인천논현역",
    "region": "SE",
    "longitude": 126.722478,
    "pcbang_count": 7,
    "latitude": 37.400614,
    "line": "SU",
    "id": 501
  },
  {
    "name": "남동인더스파크역",
    "region": "SE",
    "longitude": 126.695216,
    "pcbang_count": 0,
    "latitude": 37.407722,
    "line": "SU",
    "id": 502
  },
  {
    "name": "연수역",
    "region": "SE",
    "longitude": 126.67894,
    "pcbang_count": 21,
    "latitude": 37.417804,
    "line": "SU",
    "id": 503
  },
  {
    "name": "호구포역",
    "region": "SE",
    "longitude": 126.708627,
    "pcbang_count": 3,
    "latitude": 37.401637,
    "line": "SU",
    "id": 504
  },
  {
    "name": "송도역",
    "region": "SE",
    "longitude": 126.657772,
    "pcbang_count": 8,
    "latitude": 37.428514,
    "line": "SU",
    "id": 505
  },
  {
    "name": "인하대역",
    "region": "SE",
    "longitude": 126.649619,
    "pcbang_count": 16,
    "latitude": 37.448493,
    "line": "SU",
    "id": 506
  },
  {
    "name": "숭의역",
    "region": "SE",
    "longitude": 126.638297,
    "pcbang_count": 13,
    "latitude": 37.460789,
    "line": "SU",
    "id": 507
  },
  {
    "name": "신포역",
    "region": "SE",
    "longitude": 126.623853,
    "pcbang_count": 8,
    "latitude": 37.46874,
    "line": "SU",
    "id": 508
  },
  {
    "name": "달월역",
    "region": "SE",
    "longitude": 126.745177,
    "pcbang_count": 1,
    "latitude": 37.379681,
    "line": "SU",
    "id": 509
  },
  {
    "name": "대곡역",
    "region": "DG",
    "longitude": 128.512584,
    "pcbang_count": 8,
    "latitude": 35.809497,
    "line": "1",
    "id": 510
  },
  {
    "name": "진천역",
    "region": "DG",
    "longitude": 128.522591,
    "pcbang_count": 12,
    "latitude": 35.813826,
    "line": "1",
    "id": 511
  },
  {
    "name": "월배역",
    "region": "DG",
    "longitude": 128.530586,
    "pcbang_count": 23,
    "latitude": 35.81627599999999,
    "line": "1",
    "id": 512
  },
  {
    "name": "상인역",
    "region": "DG",
    "longitude": 128.537878,
    "pcbang_count": 24,
    "latitude": 35.818966,
    "line": "1",
    "id": 513
  },
  {
    "name": "월촌역",
    "region": "DG",
    "longitude": 128.545471,
    "pcbang_count": 13,
    "latitude": 35.823688,
    "line": "1",
    "id": 514
  },
  {
    "name": "송현역",
    "region": "DG",
    "longitude": 128.551756,
    "pcbang_count": 20,
    "latitude": 35.831079,
    "line": "1",
    "id": 515
  },
  {
    "name": "성당못역",
    "region": "DG",
    "longitude": 128.557418,
    "pcbang_count": 15,
    "latitude": 35.837471,
    "line": "1",
    "id": 516
  },
  {
    "name": "대명역",
    "region": "DG",
    "longitude": 128.565482,
    "pcbang_count": 13,
    "latitude": 35.839302,
    "line": "1",
    "id": 517
  },
  {
    "name": "안지랑역",
    "region": "DG",
    "longitude": 128.573899,
    "pcbang_count": 13,
    "latitude": 35.839243,
    "line": "1",
    "id": 518
  },
  {
    "name": "현충로역",
    "region": "DG",
    "longitude": 128.581388,
    "pcbang_count": 16,
    "latitude": 35.84091,
    "line": "1",
    "id": 519
  },
  {
    "name": "영대병원역",
    "region": "DG",
    "longitude": 128.588251,
    "pcbang_count": 18,
    "latitude": 35.844269,
    "line": "1",
    "id": 520
  },
  {
    "name": "교대역",
    "region": "DG",
    "longitude": 128.590626,
    "pcbang_count": 26,
    "latitude": 35.851106,
    "line": "1",
    "id": 521
  },
  {
    "name": "명덕역",
    "region": "DG",
    "longitude": 128.5899982,
    "pcbang_count": 17,
    "latitude": 35.8569426,
    "line": "1",
    "id": 522
  },
  {
    "name": "반월당역",
    "region": "DG",
    "longitude": 128.593341,
    "pcbang_count": 19,
    "latitude": 35.864678,
    "line": "1",
    "id": 523
  },
  {
    "name": "중앙로역",
    "region": "DG",
    "longitude": 128.593993,
    "pcbang_count": 14,
    "latitude": 35.870913,
    "line": "1",
    "id": 524
  },
  {
    "name": "대구역",
    "region": "DG",
    "longitude": 128.596213,
    "pcbang_count": 15,
    "latitude": 35.87646,
    "line": "1",
    "id": 525
  },
  {
    "name": "칠성시장역",
    "region": "DG",
    "longitude": 128.605164,
    "pcbang_count": 23,
    "latitude": 35.876141,
    "line": "1",
    "id": 526
  },
  {
    "name": "신천역",
    "region": "DG",
    "longitude": 128.617593,
    "pcbang_count": 16,
    "latitude": 35.874627,
    "line": "1",
    "id": 527
  },
  {
    "name": "동대구역",
    "region": "DG",
    "longitude": 128.628476,
    "pcbang_count": 24,
    "latitude": 35.879667,
    "line": "1",
    "id": 528
  },
  {
    "name": "큰고개역",
    "region": "DG",
    "longitude": 128.6263027,
    "pcbang_count": 21,
    "latitude": 35.8808611,
    "line": "1",
    "id": 529
  },
  {
    "name": "아양교역",
    "region": "DG",
    "longitude": 128.639755,
    "pcbang_count": 14,
    "latitude": 35.887162,
    "line": "1",
    "id": 530
  },
  {
    "name": "동촌역",
    "region": "DG",
    "longitude": 128.65015,
    "pcbang_count": 10,
    "latitude": 35.886159,
    "line": "1",
    "id": 531
  },
  {
    "name": "해안역",
    "region": "DG",
    "longitude": 128.659866,
    "pcbang_count": 12,
    "latitude": 35.883526,
    "line": "1",
    "id": 532
  },
  {
    "name": "방촌역",
    "region": "DG",
    "longitude": 128.670183,
    "pcbang_count": 10,
    "latitude": 35.879702,
    "line": "1",
    "id": 533
  },
  {
    "name": "용계역",
    "region": "DG",
    "longitude": 128.68175,
    "pcbang_count": 1,
    "latitude": 35.87623,
    "line": "1",
    "id": 534
  },
  {
    "name": "율하역",
    "region": "DG",
    "longitude": 128.693037,
    "pcbang_count": 9,
    "latitude": 35.869577,
    "line": "1",
    "id": 535
  },
  {
    "name": "신기역",
    "region": "DG",
    "longitude": 128.70169,
    "pcbang_count": 12,
    "latitude": 35.866746,
    "line": "1",
    "id": 536
  },
  {
    "name": "반야월역",
    "region": "DG",
    "longitude": 128.713574,
    "pcbang_count": 10,
    "latitude": 35.865982,
    "line": "1",
    "id": 537
  },
  {
    "name": "각산역",
    "region": "DG",
    "longitude": 128.7244,
    "pcbang_count": 8,
    "latitude": 35.868029,
    "line": "1",
    "id": 538
  },
  {
    "name": "안심역",
    "region": "DG",
    "longitude": 128.733747,
    "pcbang_count": 7,
    "latitude": 35.871217,
    "line": "1",
    "id": 539
  },
  {
    "name": "문양역",
    "region": "DG",
    "longitude": 128.437177,
    "pcbang_count": 0,
    "latitude": 35.864065,
    "line": "2",
    "id": 540
  },
  {
    "name": "다사역",
    "region": "DG",
    "longitude": 128.458297,
    "pcbang_count": 7,
    "latitude": 35.864954,
    "line": "2",
    "id": 541
  },
  {
    "name": "대실역",
    "region": "DG",
    "longitude": 128.465617,
    "pcbang_count": 8,
    "latitude": 35.857348,
    "line": "2",
    "id": 542
  },
  {
    "name": "강창역",
    "region": "DG",
    "longitude": 128.479273,
    "pcbang_count": 9,
    "latitude": 35.853067,
    "line": "2",
    "id": 543
  },
  {
    "name": "계명대역",
    "region": "DG",
    "longitude": 128.491969,
    "pcbang_count": 19,
    "latitude": 35.851484,
    "line": "2",
    "id": 544
  },
  {
    "name": "성서산업단지역",
    "region": "DG",
    "longitude": 128.506475,
    "pcbang_count": 9,
    "latitude": 35.851826,
    "line": "2",
    "id": 545
  },
  {
    "name": "이곡역",
    "region": "DG",
    "longitude": 128.5064654,
    "pcbang_count": 9,
    "latitude": 35.8519151,
    "line": "2",
    "id": 546
  },
  {
    "name": "용산역",
    "region": "DG",
    "longitude": 128.528207,
    "pcbang_count": 14,
    "latitude": 35.849047,
    "line": "2",
    "id": 547
  },
  {
    "name": "죽전역",
    "region": "DG",
    "longitude": 128.538827,
    "pcbang_count": 23,
    "latitude": 35.850752,
    "line": "2",
    "id": 548
  },
  {
    "name": "감삼역",
    "region": "DG",
    "longitude": 128.548097,
    "pcbang_count": 15,
    "latitude": 35.854337,
    "line": "2",
    "id": 549
  },
  {
    "name": "두류역",
    "region": "DG",
    "longitude": 128.557425,
    "pcbang_count": 16,
    "latitude": 35.857883,
    "line": "2",
    "id": 550
  },
  {
    "name": "내당역",
    "region": "DG",
    "longitude": 128.5554768,
    "pcbang_count": 16,
    "latitude": 35.8536597,
    "line": "2",
    "id": 551
  },
  {
    "name": "반고개역",
    "region": "DG",
    "longitude": 128.573368,
    "pcbang_count": 22,
    "latitude": 35.862402,
    "line": "2",
    "id": 552
  },
  {
    "name": "서문시장역",
    "region": "DG",
    "longitude": 128.582254,
    "pcbang_count": 10,
    "latitude": 35.869761,
    "line": "2",
    "id": 553
  },
  {
    "name": "반월당역",
    "region": "DG",
    "longitude": 128.593341,
    "pcbang_count": 19,
    "latitude": 35.864678,
    "line": "2",
    "id": 554
  },
  {
    "name": "경대병원역",
    "region": "DG",
    "longitude": 128.603393,
    "pcbang_count": 20,
    "latitude": 35.863096,
    "line": "2",
    "id": 555
  },
  {
    "name": "대구은행역",
    "region": "DG",
    "longitude": 128.613918,
    "pcbang_count": 14,
    "latitude": 35.859794,
    "line": "2",
    "id": 556
  },
  {
    "name": "범어역",
    "region": "DG",
    "longitude": 128.626864,
    "pcbang_count": 15,
    "latitude": 35.859039,
    "line": "2",
    "id": 557
  },
  {
    "name": "수성구청역",
    "region": "DG",
    "longitude": 128.635628,
    "pcbang_count": 12,
    "latitude": 35.858864,
    "line": "2",
    "id": 558
  },
  {
    "name": "만촌역",
    "region": "DG",
    "longitude": 128.644833,
    "pcbang_count": 17,
    "latitude": 35.858927,
    "line": "2",
    "id": 559
  },
  {
    "name": "담티역",
    "region": "DG",
    "longitude": 128.653937,
    "pcbang_count": 9,
    "latitude": 35.854824,
    "line": "2",
    "id": 560
  },
  {
    "name": "연호역",
    "region": "DG",
    "longitude": 128.67135,
    "pcbang_count": 0,
    "latitude": 35.846772,
    "line": "2",
    "id": 561
  },
  {
    "name": "대공원역",
    "region": "DG",
    "longitude": 128.679992,
    "pcbang_count": 0,
    "latitude": 35.842749,
    "line": "2",
    "id": 562
  },
  {
    "name": "고산역",
    "region": "DG",
    "longitude": 128.693151,
    "pcbang_count": 3,
    "latitude": 35.842948,
    "line": "2",
    "id": 563
  },
  {
    "name": "신매역",
    "region": "DG",
    "longitude": 128.704902,
    "pcbang_count": 17,
    "latitude": 35.840887,
    "line": "2",
    "id": 564
  },
  {
    "name": "사월역",
    "region": "DG",
    "longitude": 128.715636,
    "pcbang_count": 14,
    "latitude": 35.836989,
    "line": "2",
    "id": 565
  },
  {
    "name": "정평역",
    "region": "DG",
    "longitude": 128.601445,
    "pcbang_count": 19,
    "latitude": 35.8714354,
    "line": "2",
    "id": 566
  },
  {
    "name": "임당역",
    "region": "DG",
    "longitude": 128.601445,
    "pcbang_count": 19,
    "latitude": 35.8714354,
    "line": "2",
    "id": 567
  },
  {
    "name": "영남대역",
    "region": "DG",
    "longitude": 128.601445,
    "pcbang_count": 19,
    "latitude": 35.8714354,
    "line": "2",
    "id": 568
  },
  {
    "name": "칠곡역",
    "region": "DG",
    "longitude": 128.601445,
    "pcbang_count": 19,
    "latitude": 35.8714354,
    "line": "3",
    "id": 569
  },
  {
    "name": "학정역",
    "region": "DG",
    "longitude": 128.601445,
    "pcbang_count": 19,
    "latitude": 35.8714354,
    "line": "3",
    "id": 570
  },
  {
    "name": "팔거역",
    "region": "DG",
    "longitude": 128.601445,
    "pcbang_count": 19,
    "latitude": 35.8714354,
    "line": "3",
    "id": 571
  },
  {
    "name": "동천역",
    "region": "DG",
    "longitude": 128.601445,
    "pcbang_count": 19,
    "latitude": 35.8714354,
    "line": "3",
    "id": 572
  },
  {
    "name": "칠곡운암역",
    "region": "DG",
    "longitude": 128.601445,
    "pcbang_count": 19,
    "latitude": 35.8714354,
    "line": "3",
    "id": 573
  },
  {
    "name": "구암역",
    "region": "DG",
    "longitude": 128.601445,
    "pcbang_count": 19,
    "latitude": 35.8714354,
    "line": "3",
    "id": 574
  },
  {
    "name": "태전역",
    "region": "DG",
    "longitude": 128.601445,
    "pcbang_count": 19,
    "latitude": 35.8714354,
    "line": "3",
    "id": 575
  },
  {
    "name": "매천역",
    "region": "DG",
    "longitude": 128.601445,
    "pcbang_count": 19,
    "latitude": 35.8714354,
    "line": "3",
    "id": 576
  },
  {
    "name": "매천역",
    "region": "DG",
    "longitude": 128.601445,
    "pcbang_count": 19,
    "latitude": 35.8714354,
    "line": "3",
    "id": 577
  },
  {
    "name": "팔달역",
    "region": "DG",
    "longitude": 128.601445,
    "pcbang_count": 19,
    "latitude": 35.8714354,
    "line": "3",
    "id": 578
  },
  {
    "name": "공단역",
    "region": "DG",
    "longitude": 128.601445,
    "pcbang_count": 19,
    "latitude": 35.8714354,
    "line": "3",
    "id": 579
  },
  {
    "name": "만평역",
    "region": "DG",
    "longitude": 128.601445,
    "pcbang_count": 19,
    "latitude": 35.8714354,
    "line": "3",
    "id": 580
  },
  {
    "name": "팔달시장역",
    "region": "DG",
    "longitude": 128.601445,
    "pcbang_count": 19,
    "latitude": 35.8714354,
    "line": "3",
    "id": 581
  },
  {
    "name": "원대역",
    "region": "DG",
    "longitude": 128.601445,
    "pcbang_count": 19,
    "latitude": 35.8714354,
    "line": "3",
    "id": 582
  },
  {
    "name": "북구청역",
    "region": "DG",
    "longitude": 128.5813928,
    "pcbang_count": 15,
    "latitude": 35.8838302,
    "line": "3",
    "id": 583
  },
  {
    "name": "달성공원역",
    "region": "DG",
    "longitude": 128.5820011,
    "pcbang_count": 10,
    "latitude": 35.8757248,
    "line": "3",
    "id": 584
  },
  {
    "name": "서문시장역",
    "region": "DG",
    "longitude": 128.582254,
    "pcbang_count": 10,
    "latitude": 35.869761,
    "line": "3",
    "id": 585
  },
  {
    "name": "신남역",
    "region": "DG",
    "longitude": 128.582292,
    "pcbang_count": 16,
    "latitude": 35.8641864,
    "line": "3",
    "id": 586
  },
  {
    "name": "남산역",
    "region": "DG",
    "longitude": 128.583371,
    "pcbang_count": 21,
    "latitude": 35.856711,
    "line": "3",
    "id": 587
  },
  {
    "name": "명덕역",
    "region": "DG",
    "longitude": 128.5899982,
    "pcbang_count": 17,
    "latitude": 35.8569426,
    "line": "3",
    "id": 588
  },
  {
    "name": "건들바위역",
    "region": "DG",
    "longitude": 128.599639,
    "pcbang_count": 10,
    "latitude": 35.855428,
    "line": "3",
    "id": 589
  },
  {
    "name": "대봉교역",
    "region": "DG",
    "longitude": 128.6062799,
    "pcbang_count": 11,
    "latitude": 35.8549844,
    "line": "3",
    "id": 590
  },
  {
    "name": "수성시장역",
    "region": "DG",
    "longitude": 128.6159746,
    "pcbang_count": 15,
    "latitude": 35.8543268,
    "line": "3",
    "id": 591
  },
  {
    "name": "수성구민운동장역",
    "region": "DG",
    "longitude": 128.62503,
    "pcbang_count": 14,
    "latitude": 35.8524058,
    "line": "3",
    "id": 592
  },
  {
    "name": "어린이회관역",
    "region": "DG",
    "longitude": 128.624482,
    "pcbang_count": 10,
    "latitude": 35.845223,
    "line": "3",
    "id": 593
  },
  {
    "name": "황금역",
    "region": "DG",
    "longitude": 128.601445,
    "pcbang_count": 19,
    "latitude": 35.8714354,
    "line": "3",
    "id": 594
  },
  {
    "name": "수성못역",
    "region": "DG",
    "longitude": 128.601445,
    "pcbang_count": 19,
    "latitude": 35.8714354,
    "line": "3",
    "id": 595
  },
  {
    "name": "지산역",
    "region": "DG",
    "longitude": 128.601445,
    "pcbang_count": 19,
    "latitude": 35.8714354,
    "line": "3",
    "id": 596
  },
  {
    "name": "범물역",
    "region": "DG",
    "longitude": 128.601445,
    "pcbang_count": 19,
    "latitude": 35.8714354,
    "line": "3",
    "id": 597
  },
  {
    "name": "용지역",
    "region": "DG",
    "longitude": 128.601445,
    "pcbang_count": 19,
    "latitude": 35.8714354,
    "line": "3",
    "id": 598
  },
  {
    "name": "신평역",
    "region": "BS",
    "longitude": 128.960672,
    "pcbang_count": 6,
    "latitude": 35.095203,
    "line": "1",
    "id": 599
  },
  {
    "name": "하단역",
    "region": "BS",
    "longitude": 128.966749,
    "pcbang_count": 19,
    "latitude": 35.106232,
    "line": "1",
    "id": 600
  },
  {
    "name": "당리역",
    "region": "BS",
    "longitude": 128.97362,
    "pcbang_count": 15,
    "latitude": 35.103613,
    "line": "1",
    "id": 601
  },
  {
    "name": "사하역",
    "region": "BS",
    "longitude": 128.983302,
    "pcbang_count": 16,
    "latitude": 35.099785,
    "line": "1",
    "id": 602
  },
  {
    "name": "괴정역",
    "region": "BS",
    "longitude": 128.993215,
    "pcbang_count": 15,
    "latitude": 35.100158,
    "line": "1",
    "id": 603
  },
  {
    "name": "대티역",
    "region": "BS",
    "longitude": 128.999894,
    "pcbang_count": 16,
    "latitude": 35.103137,
    "line": "1",
    "id": 604
  },
  {
    "name": "서대신역",
    "region": "BS",
    "longitude": 129.012118,
    "pcbang_count": 16,
    "latitude": 35.110891,
    "line": "1",
    "id": 605
  },
  {
    "name": "동대신역",
    "region": "BS",
    "longitude": 129.017927,
    "pcbang_count": 20,
    "latitude": 35.110072,
    "line": "1",
    "id": 606
  },
  {
    "name": "토성역",
    "region": "BS",
    "longitude": 129.01983,
    "pcbang_count": 25,
    "latitude": 35.100801,
    "line": "1",
    "id": 607
  },
  {
    "name": "자갈치역",
    "region": "BS",
    "longitude": 129.02573,
    "pcbang_count": 26,
    "latitude": 35.097121,
    "line": "1",
    "id": 608
  },
  {
    "name": "남포역",
    "region": "BS",
    "longitude": 129.034663,
    "pcbang_count": 24,
    "latitude": 35.097883,
    "line": "1",
    "id": 609
  },
  {
    "name": "중앙역",
    "region": "BS",
    "longitude": 129.036397,
    "pcbang_count": 15,
    "latitude": 35.103955,
    "line": "1",
    "id": 610
  },
  {
    "name": "부산역",
    "region": "BS",
    "longitude": 129.041549,
    "pcbang_count": 9,
    "latitude": 35.114979,
    "line": "1",
    "id": 611
  },
  {
    "name": "초량역",
    "region": "BS",
    "longitude": 129.042908,
    "pcbang_count": 13,
    "latitude": 35.121016,
    "line": "1",
    "id": 612
  },
  {
    "name": "부산진역",
    "region": "BS",
    "longitude": 129.047853,
    "pcbang_count": 10,
    "latitude": 35.127741,
    "line": "1",
    "id": 613
  },
  {
    "name": "좌천역",
    "region": "BS",
    "longitude": 129.243854,
    "pcbang_count": 0,
    "latitude": 35.311327,
    "line": "1",
    "id": 614
  },
  {
    "name": "범일역",
    "region": "BS",
    "longitude": 129.059384,
    "pcbang_count": 16,
    "latitude": 35.141395,
    "line": "1",
    "id": 615
  },
  {
    "name": "범내골역",
    "region": "BS",
    "longitude": 129.059292,
    "pcbang_count": 27,
    "latitude": 35.147269,
    "line": "1",
    "id": 616
  },
  {
    "name": "서면역",
    "region": "BS",
    "longitude": 129.059164,
    "pcbang_count": 32,
    "latitude": 35.157456,
    "line": "1",
    "id": 617
  },
  {
    "name": "부전역",
    "region": "BS",
    "longitude": 129.062371,
    "pcbang_count": 34,
    "latitude": 35.16179,
    "line": "1",
    "id": 618
  },
  {
    "name": "양정역",
    "region": "BS",
    "longitude": 129.071356,
    "pcbang_count": 13,
    "latitude": 35.173144,
    "line": "1",
    "id": 619
  },
  {
    "name": "시청역",
    "region": "BS",
    "longitude": 129.076815,
    "pcbang_count": 22,
    "latitude": 35.179992,
    "line": "1",
    "id": 620
  },
  {
    "name": "연산역",
    "region": "BS",
    "longitude": 129.081582,
    "pcbang_count": 17,
    "latitude": 35.186192,
    "line": "1",
    "id": 621
  },
  {
    "name": "교대역",
    "region": "BS",
    "longitude": 129.080029,
    "pcbang_count": 20,
    "latitude": 35.19555,
    "line": "1",
    "id": 622
  },
  {
    "name": "동래역",
    "region": "BS",
    "longitude": 129.078502,
    "pcbang_count": 25,
    "latitude": 35.205614,
    "line": "1",
    "id": 623
  },
  {
    "name": "명륜역",
    "region": "BS",
    "longitude": 129.079689,
    "pcbang_count": 17,
    "latitude": 35.212553,
    "line": "1",
    "id": 624
  },
  {
    "name": "온천장역",
    "region": "BS",
    "longitude": 129.086423,
    "pcbang_count": 16,
    "latitude": 35.2203,
    "line": "1",
    "id": 625
  },
  {
    "name": "부산대역",
    "region": "BS",
    "longitude": 129.089385,
    "pcbang_count": 32,
    "latitude": 35.22979,
    "line": "1",
    "id": 626
  },
  {
    "name": "장전역",
    "region": "BS",
    "longitude": 129.088146,
    "pcbang_count": 29,
    "latitude": 35.238042,
    "line": "1",
    "id": 627
  },
  {
    "name": "구서역",
    "region": "BS",
    "longitude": 129.091325,
    "pcbang_count": 7,
    "latitude": 35.247305,
    "line": "1",
    "id": 628
  },